ID,Start_Lat,Start_Lng,State,County,City
A-230606,39.046383,-74.901123,NJ,Cape May,Cape May Court House
A-198251,41.346992,-74.686195,NJ,Sussex,Montague
A-3454902,40.17014,-74.10580999999998,NJ,Monmouth,Belmar
A-3447755,40.00693,-75.03882,NJ,Burlington,Palmyra
A-196509,40.979057,-74.009064,NJ,Bergen,Emerson
A-197909,40.644226,-74.716179,NJ,Somerset,Bedminster
A-3453413,39.59365,-74.43674,NJ,Ocean,Tuckerton
A-230514,39.674576,-75.48640400000002,NJ,Salem,Pennsville
A-233365,40.927914,-75.090874,NJ,Warren,Columbia
A-3452290,40.19159000000001,-74.59206999999998,NJ,Mercer,Trenton
A-230065,39.496475,-74.99587199999998,NJ,Cumberland,Vineland
A-196581,40.606724,-74.261658,NJ,Union,Rahway
A-196145,41.018269,-74.364014,NJ,Passaic,West Milford
A-232588,40.578148,-75.100319,NJ,Hunterdon,Milford
A-3445863,39.2589,-74.64477,NJ,Cape May,Marmora
A-194361,40.981148,-74.77109499999997,NJ,Sussex,Andover
A-233604,39.715897,-75.195122,NJ,Gloucester,Mullica Hill
A-3446317,39.444924,-75.273954,NJ,Cumberland,Bridgeton
A-231917,39.768772,-74.89666,NJ,Camden,Atco
A-194500,40.77306,-74.47953000000003,NJ,Morris,Morristown
A-232440,39.581753000000006,-74.708771,NJ,Atlantic,Egg Harbor City
A-3449704,40.26194,-74.84617,NJ,Mercer,Trenton
A-196477,40.438477,-74.507675,NJ,Middlesex,North Brunswick
A-3447766,40.014505,-74.310946,NJ,Ocean,Lakehurst
A-196446,40.728828,-74.031837,NJ,Hudson,Jersey City
A-3447395,39.36249,-74.44045,NJ,Atlantic,Atlantic City
A-196365,40.411842,-74.14157900000002,NJ,Monmouth,Holmdel
A-195570,40.786282,-74.916229,NJ,Warren,Port Murray
A-195496,41.153648,-74.576187,NJ,Sussex,Hamburg
A-232010,40.028999,-74.818947,NJ,Burlington,Mount Holly
A-196251,40.870018,-74.186584,NJ,Passaic,Clifton
A-3454853,39.9493,-74.11511999999998,NJ,Ocean,Toms River
A-3455343,40.502163,-74.854196,NJ,Hunterdon,Flemington
A-3446525,39.71006,-74.27814000000002,NJ,Ocean,Manahawkin
A-196150,41.098862,-74.161278,NJ,Bergen,Mahwah
A-194748,40.930168,-74.590179,NJ,Morris,Wharton
A-229318,39.802788,-75.348541,NJ,Gloucester,Bridgeport
A-194451,41.141544,-74.84021800000002,NJ,Sussex,Newton
A-196287,40.820007,-74.721581,NJ,Morris,Chester
A-3453489,39.851516,-75.096956,NJ,Gloucester,Woodbury
A-198406,40.608334,-74.48919699999998,NJ,Middlesex,Green Brook
A-196649,40.859127,-74.349289,NJ,Morris,Parsippany
A-231307,39.646,-75.337746,NJ,Salem,Pilesgrove
A-198083,40.49411,-74.64846,NJ,Somerset,Hillsborough
A-3453399,40.33676,-74.63169,NJ,Mercer,Princeton
A-198215,40.943085,-74.943161,NJ,Warren,Blairstown
A-3446830,39.34878,-74.99877,NJ,Cumberland,Millville
A-3451255,40.295653,-74.028829,NJ,Monmouth,West Long Branch
A-3446109,40.46163,-74.281181,NJ,Middlesex,South Amboy
A-196817,40.63118,-74.919586,NJ,Hunterdon,Clinton
A-197365,40.723568,-74.17588,NJ,Essex,Newark
A-3447966,40.15571,-74.30408,NJ,Ocean,Jackson
A-228905,40.69634600000001,-75.175934,NJ,Warren,Phillipsburg
A-3454601,40.851631,-73.952843,NJ,Bergen,Fort Lee
A-230147,39.902657,-74.934845,NJ,Burlington,Marlton
A-196824,40.698093,-74.366486,NJ,Union,Summit
A-228778,40.135323,-74.71545400000002,NJ,Burlington,Bordentown
A-3449026,39.4517,-74.53639,NJ,Atlantic,Absecon
A-194384,40.51688,-74.400253,NJ,Middlesex,Edison
A-3447346,39.567556,-75.238763,NJ,Salem,Elmer
A-230709,39.461437,-74.87664000000002,NJ,Atlantic,Milmay
A-229195,39.614182,-74.828629,NJ,Atlantic,Hammonton
A-3455087,39.17222,-74.73012,NJ,Cape May,Cape May Court House
A-194595,40.893574,-74.476646,NJ,Morris,Denville
A-3453768,40.271576,-74.508764,NJ,Mercer,Hightstown
A-197650,41.132397,-74.27037,NJ,Passaic,Ringwood
A-3453830,40.87949,-74.06390999999998,NJ,Bergen,Hackensack
A-195309,40.975117,-74.14658399999998,NJ,Bergen,Ridgewood
A-3450129,41.129283,-74.72955999999998,NJ,Sussex,Augusta
A-196350,40.407394,-74.387375,NJ,Middlesex,East Brunswick
A-230710,40.251133,-74.696831,NJ,Mercer,Trenton
A-3446993,40.075679,-74.156182,NJ,Ocean,Brick
A-3449435,40.54109,-74.75761,NJ,Hunterdon,Neshanic Station
A-3451371,39.815885,-74.99163399999998,NJ,Camden,Clementon
A-3448892,39.98463,-74.21191999999998,NJ,Ocean,Toms River
A-3451517,39.83827,-75.19819,NJ,Gloucester,Thorofare
A-3450310,40.79782,-74.2549,NJ,Essex,West Orange
A-3453567,40.64694,-74.58019,NJ,Somerset,Basking Ridge
A-195487,41.058186,-74.067474,NJ,Bergen,Montvale
A-229876,39.946087,-75.11398299999998,NJ,Camden,Camden
A-3449339,39.76181,-75.4339,NJ,Salem,Pedricktown
A-3453091,40.995543,-74.86131,NJ,Sussex,Newton
A-194729,41.023865,-74.272835,NJ,Passaic,Pompton Lakes
A-196016,40.824024,-74.833885,NJ,Warren,Hackettstown
A-195611,40.660229,-74.11116,NJ,Hudson,Bayonne
A-198476,41.014942,-74.617981,NJ,Sussex,Sparta
A-3448959,40.89256,-74.66998000000002,NJ,Morris,Ledgewood
A-198369,40.753822,-74.998184,NJ,Warren,Washington
A-3454051,40.66025,-75.07066999999998,NJ,Hunterdon,Bloomsbury
A-198101,40.696232,-74.25862099999998,NJ,Union,Union
A-3454874,39.75256,-75.27821,NJ,Gloucester,Swedesboro
A-195332,40.644081,-74.835228,NJ,Hunterdon,Lebanon
A-196517,40.894001,-74.273315,NJ,Essex,Fairfield
A-3455382,39.899072,-74.851923,NJ,Burlington,Medford
A-195456,40.58935200000001,-74.360825,NJ,Middlesex,Edison
A-231276,40.221462,-74.775436,NJ,Mercer,Trenton
A-3450042,40.340507,-74.103389,NJ,Monmouth,Red Bank
A-3448891,40.91827,-74.821128,NJ,Warren,Hackettstown
A-3452473,40.10373,-74.79007,NJ,Burlington,Burlington
A-194362,40.744888,-74.694344,NJ,Morris,Chester
A-198147,40.789799,-74.388695,NJ,Morris,Florham Park
A-3454334,39.921049,-75.038372,NJ,Camden,Cherry Hill
A-197627,40.844559,-74.606636,NJ,Morris,Randolph
A-230465,40.052422,-74.894539,NJ,Burlington,Willingboro
A-194998,40.801102,-74.074409,NJ,Bergen,East Rutherford
A-3453474,39.760787,-75.047788,NJ,Camden,Blackwood
A-196777,40.567986,-74.55645799999998,NJ,Somerset,Bound Brook
A-195717,40.514122,-74.48710600000003,NJ,Somerset,Somerset
A-231690,39.447372,-75.05596899999998,NJ,Cumberland,Vineland
A-198322,41.126717,-74.503571,NJ,Sussex,Stockholm
A-231451,39.725544,-74.96057900000002,NJ,Camden,Sicklerville
A-195353,40.650249,-74.194466,NJ,Union,Elizabethport
A-196823,40.729408,-74.53864300000002,NJ,Somerset,Basking Ridge
A-231420,39.644741,-75.209648,NJ,Salem,Monroeville
A-194341,40.542755,-74.295609,NJ,Middlesex,Woodbridge
A-229867,40.951439,-75.013931,NJ,Warren,Blairstown
A-3452064,40.24992,-74.08243,NJ,Monmouth,Asbury Park
A-3452147,40.29314,-74.78316,NJ,Mercer,Pennington
A-3453072,40.105722,-74.219284,NJ,Ocean,Lakewood
A-3445438,40.42025,-74.21076,NJ,Monmouth,Hazlet
A-228822,39.967258,-74.910881,NJ,Burlington,Mount Laurel
A-197128,40.728699,-74.104118,NJ,Hudson,Kearny
A-197121,40.806847,-74.159988,NJ,Essex,Belleville
A-3446054,40.380145,-74.578856,NJ,Middlesex,Monmouth Junction
A-198240,41.039318,-74.809196,NJ,Sussex,Newton
A-195329,40.912109,-73.997765,NJ,Bergen,Bergenfield
A-195038,40.556194,-74.675812,NJ,Somerset,Bridgewater
A-232798,39.657047,-74.880371,NJ,Camden,Hammonton
A-232439,39.425201,-75.209824,NJ,Cumberland,Bridgeton
A-3453163,40.846979,-74.428481,NJ,Morris,Parsippany
A-198446,41.013939,-74.208275,NJ,Bergen,Franklin Lakes
A-194909,40.709404,-74.950325,NJ,Hunterdon,Hampton
A-196127,40.788074,-74.319443,NJ,Essex,Livingston
A-196840,40.6577,-74.64444,NJ,Somerset,Bedminster
A-3453970,40.901612,-74.129983,NJ,Bergen,Elmwood Park
A-231583,39.815071,-75.258224,NJ,Gloucester,Gibbstown
A-230684,39.82449,-74.928085,NJ,Camden,Voorhees
A-197288,40.819126,-74.007706,NJ,Bergen,Fairview
A-194332,41.036968,-74.132416,NJ,Bergen,Allendale
A-228769,39.592911,-75.2967,NJ,Salem,Elmer
A-233115,39.95682100000001,-74.987762,NJ,Burlington,Maple Shade
A-3449270,40.99648,-74.07167,NJ,Bergen,Township of Washington
A-197066,40.455471,-74.42466,NJ,Middlesex,East Brunswick
A-196825,40.916019,-74.370361,NJ,Morris,Montville
A-229590,39.794102,-75.114075,NJ,Gloucester,Sewell
A-3449802,39.86142,-75.0335,NJ,Camden,Magnolia
A-3451126,39.50678,-74.518947,NJ,Atlantic,Egg Harbor City
A-229926,40.704182,-75.11885799999997,NJ,Warren,Stewartsville
A-197528,40.84744600000001,-74.111954,NJ,Bergen,Wallington
A-3448888,39.382015,-74.493843,NJ,Atlantic,Pleasantville
A-195379,40.746399,-74.227791,NJ,Essex,East Orange
A-197955,40.724323,-74.307358,NJ,Essex,Millburn
A-197402,40.934082,-74.053123,NJ,Bergen,Paramus
A-3449791,40.55586,-74.4391,NJ,Middlesex,Piscataway
A-231591,40.199467,-74.71219599999998,NJ,Mercer,Trenton
A-196478,40.628609,-74.32431,NJ,Union,Westfield
A-196153,41.074528,-74.256424,NJ,Passaic,Ringwood
A-3445404,40.64732,-74.5252,NJ,Somerset,Warren
A-3454195,40.52416,-74.34445,NJ,Middlesex,Edison
A-228712,39.811066,-75.061615,NJ,Camden,Blackwood
A-196778,40.930504,-74.173302,NJ,Passaic,Paterson
A-198457,40.988438,-74.308998,NJ,Morris,Riverdale
A-229398,40.297707,-74.67873399999998,NJ,Mercer,Princeton
A-195320,40.871964,-74.52125500000002,NJ,Morris,Denville
A-231571,39.401997,-75.037468,NJ,Cumberland,Millville
A-3454173,39.56423,-74.754205,NJ,Atlantic,Hammonton
A-228804,39.909157,-74.984383,NJ,Camden,Cherry Hill
A-196735,40.658531,-74.28733100000002,NJ,Union,Cranford
A-194331,40.506321,-74.266029,NJ,Middlesex,Perth Amboy
A-195804,40.910557,-74.547722,NJ,Morris,Dover
A-3447414,40.174447,-74.63515500000003,NJ,Mercer,Trenton
A-3455086,40.98842,-74.90709,NJ,Warren,Blairstown
A-3446039,40.784941,-74.20067900000002,NJ,Essex,Bloomfield
A-3452824,40.864893,-74.01095500000002,NJ,Bergen,Teaneck
A-198372,40.623127,-74.964127,NJ,Hunterdon,Pittstown
A-3447801,39.41052,-74.55485999999998,NJ,Atlantic,Egg Harbor Township
A-198080,40.722038,-74.403778,NJ,Morris,Chatham
A-194910,40.699665,-74.21266899999998,NJ,Union,Hillside
A-3453511,40.77537,-74.03911,NJ,Hudson,North Bergen
A-194526,40.806618,-74.445084,NJ,Morris,Whippany
A-231589,40.09491,-74.73174300000002,NJ,Burlington,Columbus
A-3447418,39.90285,-75.1159,NJ,Camden,Camden
A-3454140,40.65036,-74.75888,NJ,Hunterdon,Lebanon
A-197169,40.607117,-74.69453399999998,NJ,Somerset,Branchburg
A-228767,39.99976,-74.98691600000002,NJ,Burlington,Riverton
A-198225,40.853191,-74.86524200000002,NJ,Warren,Hackettstown
A-197632,40.850956,-74.473541,NJ,Morris,Morris Plains
A-196899,40.899204,-74.231255,NJ,Passaic,Totowa
A-3452963,40.56368,-74.25913,NJ,Middlesex,Port Reading
A-197929,40.69339,-74.08165699999998,NJ,Hudson,Jersey City
A-3447278,40.617589,-74.22057,NJ,Union,Linden
A-229049,39.991913,-74.877174,NJ,Burlington,Mount Laurel
A-3454929,40.683681,-74.164169,NJ,Union,Elizabeth
A-3447277,39.85986,-75.13750999999998,NJ,Gloucester,Woodbury
A-198455,40.862572,-74.569969,NJ,Morris,Randolph
A-3455040,40.760695,-74.079329,NJ,Hudson,Secaucus
A-3449029,40.63938,-74.88001,NJ,Hunterdon,Annandale
A-195547,40.684959,-74.328506,NJ,Union,Springfield
A-195266,40.568535,-74.32665300000002,NJ,Middlesex,Iselin
A-3450882,40.86026,-74.38923,NJ,Morris,Parsippany
A-197928,40.940269,-74.1203,NJ,Bergen,Fair Lawn
A-194386,40.435207,-74.251503,NJ,Middlesex,South Amboy
A-195584,40.749298,-74.137321,NJ,Hudson,Kearny
A-231939,39.439144,-75.017876,NJ,Cumberland,Vineland
A-198220,40.767666,-74.352432,NJ,Essex,Livingston
A-3447368,40.92897,-74.97901,NJ,Warren,Blairstown
A-3454354,40.9176,-74.08791,NJ,Bergen,Rochelle Park
A-195378,40.498058,-74.43363199999997,NJ,Middlesex,Highland Park
A-3452825,39.804255,-75.31055400000002,NJ,Gloucester,Swedesboro
A-3445369,40.19219,-74.75126,NJ,Mercer,Trenton
A-230265,40.669788,-75.134514,NJ,Warren,Phillipsburg
A-194372,40.981224,-74.99073800000002,NJ,Warren,Blairstown
A-3445935,40.40087,-74.50816,NJ,Middlesex,Monmouth Junction
A-194886,40.825375,-74.321487,NJ,Essex,Roseland
A-198207,40.691914,-74.65911899999998,NJ,Somerset,Far Hills
A-197724,41.008888,-74.162201,NJ,Bergen,Wyckoff
A-3453716,40.73084,-74.34942,NJ,Union,Summit
A-3453880,39.886512,-75.060572,NJ,Camden,Haddon Heights
A-232647,39.852051,-74.984299,NJ,Camden,Voorhees
A-197535,40.756798,-74.41584,NJ,Morris,Madison
A-3445494,40.91078,-74.50895,NJ,Morris,Rockaway
A-196496,40.495049,-74.30074300000003,NJ,Middlesex,South Amboy
A-229943,40.2859,-74.713234,NJ,Mercer,Lawrence Township
A-195861,40.897461,-74.634178,NJ,Morris,Ledgewood
A-3453125,40.80864,-74.28967,NJ,Essex,Livingston
A-232810,39.80407,-75.188393,NJ,Gloucester,Mantua
A-228643,39.922192,-75.086624,NJ,Camden,Collingswood
A-194484,41.042648,-74.03625500000003,NJ,Bergen,Park Ridge
A-3451247,40.54004000000001,-74.51015,NJ,Middlesex,Piscataway
A-228726,39.786957,-75.02510799999997,NJ,Camden,Blackwood
A-197050,40.905846,-74.033241,NJ,Bergen,Hackensack
A-232951,39.931427,-74.95285,NJ,Burlington,Mount Laurel
A-229153,39.973015,-75.039261,NJ,Camden,Merchantville
A-195441,40.814053,-74.217781,NJ,Essex,Montclair
A-195626,40.840549,-74.16109499999997,NJ,Passaic,Clifton
A-195213,40.82056400000001,-74.40780600000002,NJ,Morris,Whippany
A-196688,40.454174,-74.457939,NJ,Middlesex,North Brunswick
A-197293,40.904221,-74.193497,NJ,Passaic,Little Falls
A-196763,40.844524,-74.079002,NJ,Bergen,Wood Ridge
A-195998,40.418182,-74.177872,NJ,Monmouth,Hazlet
A-196717,40.977585,-74.11380799999998,NJ,Bergen,Ridgewood
A-232487,39.894089,-74.884407,NJ,Burlington,Marlton
A-197741,41.015709,-74.107414,NJ,Bergen,Saddle River
A-3448053,40.89718,-74.70244,NJ,Morris,Netcong
A-198148,41.059044,-74.10836,NJ,Bergen,Saddle River
A-197106,40.768162,-74.163696,NJ,Essex,Newark
A-3445616,40.479838,-74.4036,NJ,Middlesex,East Brunswick
A-197180,40.57486,-74.29428100000001,NJ,Middlesex,Avenel
A-233657,40.237244,-74.803154,NJ,Mercer,Trenton
A-197756,41.004486,-74.040848,NJ,Bergen,Hillsdale
A-230744,39.875443,-74.918526,NJ,Burlington,Marlton
A-194999,40.483425,-74.479477,NJ,Middlesex,New Brunswick
A-197163,40.883118,-73.955849,NJ,Bergen,Englewood Cliffs
A-233684,40.083488,-74.760773,NJ,Burlington,Columbus
A-3451364,40.399708,-74.55498100000001,NJ,Middlesex,Monmouth Junction
A-232823,39.881149,-75.00988000000002,NJ,Camden,Cherry Hill
A-197176,40.780132,-74.135384,NJ,Bergen,North Arlington
A-3445576,40.71057,-74.14837,NJ,Essex,Newark
A-196399,40.885002,-74.36499,NJ,Morris,Montville
A-194591,40.851196,-73.984276,NJ,Bergen,Fort Lee
A-3449392,40.693319,-74.111597,NJ,Hudson,Bayonne
A-197407,40.532253,-74.37494699999998,NJ,Middlesex,Edison
A-3447663,40.31786500000001,-74.654484,NJ,Mercer,Princeton
A-195895,40.751328,-74.187935,NJ,Essex,Newark
A-197786,40.81131,-74.10194399999997,NJ,Bergen,Rutherford
A-3450872,40.55169,-74.41009,NJ,Middlesex,South Plainfield
A-197812,40.59714500000001,-74.320412,NJ,Middlesex,Colonia
A-197621,40.796703,-74.34919000000002,NJ,Essex,Livingston
A-3454988,39.95637,-74.20648,NJ,Ocean,Toms River
A-3449893,40.71884,-74.23523,NJ,Essex,Irvington
A-198210,41.021328,-74.831085,NJ,Sussex,Newton
A-3449317,40.0123,-74.21710999999998,NJ,Ocean,Toms River
A-197273,40.766659,-74.936203,NJ,Warren,Port Murray
A-197766,40.593636,-74.235069,NJ,Middlesex,Carteret
A-3452643,40.86708,-74.039,NJ,Bergen,Hackensack
A-3454989,40.739051,-74.062174,NJ,Hudson,Jersey City
A-229817,39.476589,-74.976753,NJ,Cumberland,Vineland
A-231756,39.878384,-75.10251600000002,NJ,Camden,Mount Ephraim
A-194948,40.916023,-74.939835,NJ,Warren,Blairstown
A-3452462,40.71427,-74.27891,NJ,Union,Vauxhall
A-3445416,40.87677,-74.11921,NJ,Passaic,Clifton
A-3453088,40.95759,-74.06589,NJ,Bergen,Paramus
A-3449216,39.98508,-75.01541999999998,NJ,Camden,Pennsauken
A-3446246,40.67677,-74.19759,NJ,Union,Elizabeth
A-3446831,39.3957,-75.01161,NJ,Cumberland,Millville
A-198260,41.179897,-74.573463,NJ,Sussex,Sussex
A-196970,40.873184,-74.430176,NJ,Morris,Parsippany
A-233027,39.913822,-75.010178,NJ,Camden,Cherry Hill
A-3455125,40.82248,-74.12548000000002,NJ,Passaic,Clifton
A-229002,39.825405,-75.083199,NJ,Camden,Blackwood
A-194548,40.629585,-74.249962,NJ,Union,Linden
A-195375,40.507442,-74.457367,NJ,Middlesex,New Brunswick
A-194446,40.771706,-74.228432,NJ,Essex,Orange
A-231576,40.024586,-74.843857,NJ,Burlington,Mount Holly
A-231588,39.856724,-75.162514,NJ,Gloucester,Westville
A-195550,40.908253,-74.577782,NJ,Morris,Wharton
A-3445599,39.790779,-74.98996700000002,NJ,Camden,Pine Hill
A-194350,40.895393,-73.977379,NJ,Bergen,Englewood
A-194407,40.684544,-74.38720699999998,NJ,Union,New Providence
A-197122,40.714893,-74.067146,NJ,Hudson,Jersey City
A-231153,39.914322,-75.06208000000002,NJ,Camden,Collingswood
A-198364,40.698299,-74.185783,NJ,Essex,Newark
A-3446172,40.80512,-74.18446999999998,NJ,Essex,Bloomfield
A-196543,40.760044,-74.115326,NJ,Hudson,Kearny
A-197324,40.99390800000001,-74.194412,NJ,Bergen,Franklin Lakes
A-198218,40.838165,-74.45105699999998,NJ,Morris,Whippany
A-230736,40.23064,-74.683929,NJ,Mercer,Trenton
A-232879,39.848038,-74.923035,NJ,Camden,Voorhees
A-198021,40.544945,-74.331123,NJ,Middlesex,Edison
A-194349,40.519409,-74.301208,NJ,Middlesex,Keasbey
A-3452645,40.84086,-74.01772,NJ,Bergen,Ridgefield Park
A-3445820,40.193281,-74.100663,NJ,Monmouth,Neptune
A-196572,40.918282,-74.14664499999998,NJ,Passaic,Paterson
A-230852,40.27684,-74.828209,NJ,Mercer,Trenton
A-195334,40.679947,-74.27816,NJ,Union,Kenilworth
A-197158,40.82827800000001,-73.980713,NJ,Bergen,Cliffside Park
A-197660,40.895245,-74.152252,NJ,Passaic,Paterson
A-3449431,40.53237,-74.779035,NJ,Hunterdon,Flemington
A-231405,39.742268,-74.976425,NJ,Camden,Sicklerville
A-3454565,40.72775,-74.1294,NJ,Essex,Newark
A-197912,40.740505,-74.37011,NJ,Essex,Short Hills
A-3445680,39.87282,-75.07866,NJ,Camden,Bellmawr
A-195723,40.636734,-74.29312900000002,NJ,Union,Clark
A-3446575,40.75921,-74.20895,NJ,Essex,East Orange
A-196561,40.890545,-74.003693,NJ,Bergen,Teaneck
A-197243,40.912247,-74.057594,NJ,Bergen,Maywood
A-197693,40.717701,-74.33144399999998,NJ,Union,Springfield
A-3451120,40.04705,-74.83194,NJ,Burlington,Burlington
A-196128,40.721687,-74.210365,NJ,Essex,Newark
A-3452952,39.93564,-75.05644000000002,NJ,Camden,Cherry Hill
A-197277,41.036758,-74.071617,NJ,Bergen,Woodcliff Lake
A-196971,40.748367,-74.336586,NJ,Essex,Short Hills
A-3453164,40.86347,-74.41075,NJ,Morris,Parsippany
A-195641,40.777592,-74.300568,NJ,Essex,Livingston
A-198317,40.414822,-74.24481999999998,NJ,Monmouth,Matawan
A-3446258,40.80053,-74.46554,NJ,Morris,Morristown
A-194735,40.756611,-74.050148,NJ,Hudson,Jersey City
A-3447455,40.82502,-74.17558000000002,NJ,Essex,Bloomfield
A-195058,40.872044,-73.980499,NJ,Bergen,Leonia
A-195278,40.572384,-74.34832,NJ,Middlesex,Edison
A-195607,40.742245,-74.166306,NJ,Essex,Newark
A-233342,40.933571,-75.024925,NJ,Warren,Columbia
A-228802,39.828159,-75.103912,NJ,Gloucester,Woodbury
A-3450903,40.116503,-74.723919,NJ,Burlington,Bordentown
A-195489,40.896755,-74.252937,NJ,Passaic,Wayne
A-228951,39.955883,-75.095963,NJ,Camden,Camden
A-194980,40.908226,-74.17347,NJ,Passaic,Paterson
A-3447332,39.790812,-75.059632,NJ,Camden,Blackwood
A-196019,40.993591,-74.12610600000002,NJ,Bergen,Ridgewood
A-230294,39.804783,-74.931602,NJ,Camden,West Berlin
A-196837,40.924549,-74.959572,NJ,Warren,Blairstown
A-3454760,39.968672,-75.003672,NJ,Burlington,Maple Shade
A-195493,40.740669,-74.081856,NJ,Hudson,Jersey City
A-197526,40.950317,-74.137222,NJ,Bergen,Fair Lawn
A-195229,40.853348,-74.176392,NJ,Passaic,Clifton
A-195075,40.556988,-74.308823,NJ,Middlesex,Woodbridge
A-3452050,40.586761,-74.279119,NJ,Middlesex,Avenel
A-196445,40.55413400000001,-74.28008299999998,NJ,Middlesex,Woodbridge
A-194911,40.767563,-74.02151500000002,NJ,Hudson,Weehawken
A-198490,40.733437,-74.194366,NJ,Essex,Newark
A-3451777,40.289858,-74.76446700000002,NJ,Mercer,Pennington
A-197148,40.720463,-74.04853100000003,NJ,Hudson,Jersey City
A-3448113,39.90298,-74.96678,NJ,Camden,Cherry Hill
A-195048,40.929798,-74.104874,NJ,Bergen,Fair Lawn
A-3448301,40.78193,-74.24393,NJ,Essex,West Orange
A-195041,40.476543,-74.29985,NJ,Middlesex,South Amboy
A-230016,40.280674,-74.671577,NJ,Mercer,Princeton Junction
A-230419,40.183823,-74.722023,NJ,Mercer,Trenton
A-229291,39.930542,-75.123772,NJ,Camden,Camden
A-233385,39.830776,-75.00235,NJ,Camden,Stratford
A-195645,40.770329,-74.403481,NJ,Morris,Madison
A-3454230,40.83131,-74.1415,NJ,Passaic,Clifton
A-194622,40.92850900000001,-74.070511,NJ,Bergen,Paramus
A-194894,40.858929,-74.4897,NJ,Morris,Morris Plains
A-3446066,40.62485,-74.3066,NJ,Union,Clark
A-195668,40.774464,-74.18609599999998,NJ,Essex,Newark
A-194406,40.790005,-74.406593,NJ,Morris,Florham Park
A-3446111,39.94333,-74.97631,NJ,Burlington,Maple Shade
A-196678,40.816967,-74.06665,NJ,Bergen,East Rutherford
A-196253,40.780796,-74.055862,NJ,Hudson,Secaucus
A-195699,40.903526,-74.09848000000002,NJ,Bergen,Saddle Brook
A-194385,40.812836,-74.309212,NJ,Essex,Roseland
A-195371,40.576641,-74.571663,NJ,Somerset,Bridgewater
A-196138,40.85942100000001,-74.36676,NJ,Morris,Parsippany
A-197291,40.863029,-74.444366,NJ,Morris,Parsippany
A-229073,39.874603,-75.044884,NJ,Camden,Barrington
A-231196,40.283649,-74.696129,NJ,Mercer,Lawrence Township
A-229881,40.681385,-75.147224,NJ,Warren,Phillipsburg
A-195849,40.711948,-74.084068,NJ,Hudson,Jersey City
A-194944,40.541416,-74.389427,NJ,Middlesex,Edison
A-3451327,40.000091,-74.204702,NJ,Ocean,Toms River
A-3455173,39.84583,-75.18303,NJ,Gloucester,Thorofare
A-230091,40.233707,-74.7005,NJ,Mercer,Trenton
A-195625,40.711143,-74.197266,NJ,Essex,Newark
A-195001,40.725121,-74.159233,NJ,Essex,Newark
