ID,Start_Lat,Start_Lng,State,County,City
A-3455319,38.42758,-90.17725,IL,Monroe,Columbia
A-3453276,42.47571,-87.824327,IL,Lake,Winthrop Harbor
A-167599,41.519527,-90.513084,IL,Rock Island,Rock Island
A-167978,39.42775,-87.56031,IL,Clark,Marshall
A-3451706,40.31157,-89.171095,IL,McLean,Mc Lean
A-3455140,40.77045,-87.52601999999997,IL,Iroquois,Sheldon
A-3447416,41.85325,-89.01044,IL,Lee,Steward
A-168828,38.512371,-88.960091,IL,Marion,Centralia
A-3453708,39.73995,-89.93028000000002,IL,Sangamon,New Berlin
A-168239,41.511154,-88.12439,IL,Will,Joliet
A-167716,40.121273,-88.173622,IL,Champaign,Urbana
A-168011,42.192738,-89.996674,IL,Carroll,Mount Carroll
A-3447261,39.11993,-88.54082,IL,Effingham,Effingham
A-3452329,42.33893,-88.51126,IL,McHenry,Woodstock
A-3449065,38.802187,-89.598551,IL,Bond,Pocahontas
A-168810,40.801727,-89.63104200000002,IL,Peoria,Peoria
A-3455435,41.86758,-87.61888,IL,Cook,Chicago
A-167713,41.307579,-88.702217,IL,La Salle,Marseilles
A-3454501,41.40012,-89.38887,IL,Bureau,Princeton
A-168797,40.113693,-87.610176,IL,Vermilion,Danville
A-167896,42.275291,-89.446815,IL,Winnebago,Pecatonica
A-3454231,40.20293,-89.71576,IL,Mason,Mason City
A-3453648,42.048567,-88.098589,IL,Cook,Schaumburg
A-3453608,41.75275900000001,-89.760951,IL,Whiteside,Rock Falls
A-167534,42.456841,-88.995193,IL,Winnebago,Roscoe
A-3449512,39.83659,-89.26122,IL,Sangamon,Illiopolis
A-3454440,41.390223,-87.626513,IL,Will,Beecher
A-168201,40.251324,-88.625046,IL,De Witt,Farmer City
A-3453532,41.855144,-88.520103,IL,Kane,Elburn
A-167974,39.255646,-88.15365600000001,IL,Cumberland,Greenup
A-3448477,38.75677,-89.992855,IL,Madison,Glen Carbon
A-168301,38.456043,-89.561287,IL,Washington,Okawville
A-167855,42.393929,-88.155739,IL,Lake,Fox Lake
A-168295,41.093536,-88.450775,IL,Livingston,Dwight
A-168394,41.771507,-87.935661,IL,DuPage,Willowbrook
A-3448148,42.13913,-87.78935,IL,Cook,Glencoe
A-168481,41.168598,-87.851341,IL,Kankakee,Bourbonnais
A-3453085,42.01096,-89.296274,IL,Ogle,Oregon
A-3452413,41.602427,-89.178414,IL,Lee,Sublette
A-3449079,39.69517000000001,-89.64217,IL,Sangamon,Springfield
A-3448559,42.230174,-88.776038,IL,Boone,Belvidere
A-167807,41.801056,-88.240112,IL,DuPage,Aurora
A-168289,40.581898,-89.141144,IL,McLean,Carlock
A-168309,41.277802,-88.255676,IL,Grundy,Coal City
A-167611,40.627983,-89.431679,IL,Tazewell,Morton
A-167997,39.895084,-89.005569,IL,Macon,Decatur
A-3452254,42.139198,-88.345671,IL,Kane,Dundee
A-3447299,39.98989,-89.845065,IL,Menard,Petersburg
A-168279,41.941345,-88.749619,IL,Dekalb,Dekalb
A-167741,41.626064,-87.691399,IL,Cook,Posen
A-168955,42.237892,-89.077141,IL,Winnebago,Rockford
A-168299,40.161224,-89.33985899999998,IL,Logan,Lincoln
A-3448289,42.283098,-87.964794,IL,Lake,Libertyville
A-167571,41.535027,-87.886421,IL,Will,Mokena
A-3449776,41.667705,-88.44189899999998,IL,Kendall,Yorkville
A-3446722,38.62588,-90.16449,IL,St. Clair,East Saint Louis
A-3446658,41.95352000000001,-87.85664,IL,Cook,Schiller Park
A-3448331,41.156947,-87.656273,IL,Kankakee,Momence
A-3447330,39.951676,-88.26768100000002,IL,Champaign,Tolono
A-168310,39.051952,-88.719635,IL,Effingham,Altamont
A-3451341,42.151276,-88.536829,IL,Kane,Hampshire
A-168300,38.535446,-89.728699,IL,St. Clair,New Baden
A-167685,41.978024,-88.26945500000002,IL,Kane,Elgin
A-3449576,39.939083,-89.674192,IL,Sangamon,Cantrall
A-168670,41.87632,-88.078094,IL,Dupage,Glen Ellyn
A-167969,41.577045,-87.525261,IL,Cook,Lansing
A-3451883,42.466011,-87.997196,IL,Lake,Antioch
A-168651,42.479767,-88.30606800000002,IL,Mchenry,Richmond
A-168858,41.367634,-89.218948,IL,Bureau,Dalzell
A-3448451,38.497204,-90.01979399999998,IL,St. Clair,Belleville
A-168383,42.21207800000001,-88.141296,IL,Lake,Barrington
A-167470,41.794388,-87.770721,IL,Cook,Chicago
A-3450407,41.32838,-87.81929000000002,IL,Will,Peotone
A-168801,41.377228,-88.556168,IL,Grundy,Morris
A-3451764,41.57953,-90.36463,IL,Rock Island,East Moline
A-167447,42.371204,-88.851547,IL,Boone,Poplar Grove
A-3453646,42.10986,-87.94645,IL,Cook,Arlington Heights
A-168373,41.685043,-88.067947,IL,Will,Bolingbrook
A-3452326,41.48433,-87.74415,IL,Cook,Richton Park
A-3449078,42.01931,-87.700609,IL,Cook,Chicago
A-3454482,41.733312,-87.562661,IL,Cook,Chicago
A-3447013,42.337589,-87.835921,IL,Lake,North Chicago
A-3446370,38.76615,-90.13088,IL,Madison,Granite City
A-168525,41.469276,-89.126991,IL,La Salle,Mendota
A-167760,41.622982,-88.20270500000002,IL,Will,Plainfield
A-3455067,41.66935,-87.824217,IL,Cook,Palos Park
A-167840,41.394768,-88.192879,IL,Will,Channahon
A-3453688,41.75811,-89.631576,IL,Whiteside,Rock Falls
A-3451440,42.295479,-88.964895,IL,Winnebago,Rockford
A-3448658,39.75191,-89.750961,IL,Sangamon,Springfield
A-167517,38.614468,-90.045784,IL,St. Clair,Caseyville
A-168664,41.89016,-87.961624,IL,Dupage,Elmhurst
A-3450868,42.240345,-88.28668,IL,McHenry,Crystal Lake
A-3453902,41.718911,-88.338684,IL,Kendall,Montgomery
A-3450418,39.624634,-89.733078,IL,Sangamon,Auburn
A-3452044,42.08135,-88.22352,IL,Cook,Dundee
A-168158,42.303394,-88.075989,IL,Lake,Grayslake
A-167612,41.951801,-88.160393,IL,Cook,Hanover Park
A-167673,40.784435,-89.522285,IL,Tazewell,East Peoria
A-3452599,41.91705,-87.737525,IL,Cook,Chicago
A-167941,41.99823,-87.959412,IL,Cook,Elk Grove Village
A-3447340,42.232125,-87.854649,IL,Lake,Lake Forest
A-168234,41.520161,-87.991638,IL,Will,New Lenox
A-168655,42.161091,-88.050598,IL,Lake,Barrington
A-3449563,41.48709,-87.57735,IL,Cook,Chicago Heights
A-168153,42.03735,-88.365341,IL,Kane,Elgin
A-168507,42.391254,-87.92536899999998,IL,Lake,Gurnee
A-167371,41.755817,-87.663597,IL,Cook,Chicago
A-168304,41.376587,-88.778526,IL,LaSalle,Ottawa
A-168216,41.888752,-88.313988,IL,Kane,Geneva
A-168494,42.480843,-88.204094,IL,McHenry,Spring Grove
A-168206,42.25515,-88.55980699999998,IL,Mchenry,Marengo
A-3453839,42.181318,-88.628592,IL,McHenry,Marengo
A-3454373,42.47130900000001,-88.093572,IL,Lake,Antioch
A-167942,42.053616,-87.868652,IL,Cook,Des Plaines
A-168663,42.314114,-89.13507800000002,IL,Winnebago,Rockford
A-167754,42.299385,-88.179573,IL,Lake,McHenry
A-167361,41.782139,-88.092598,IL,DuPage,Lisle
A-167331,41.767647,-88.418716,IL,Kane,Sugar Grove
A-168006,40.018871,-89.719551,IL,Menard,Greenview
A-168911,41.873405,-87.815384,IL,Cook,Forest Park
A-168028,42.122475,-88.432983,IL,Kane,Huntley
A-167390,42.234478,-88.374214,IL,Mchenry,Crystal Lake
A-3451966,41.64595,-87.57851,IL,Cook,Chicago
A-3452956,41.55082,-87.80006,IL,Will,Tinley Park
A-3447823,40.540164,-89.06515,IL,McLean,Bloomington
A-3448021,38.752,-89.90657,IL,Madison,Troy
A-3447804,42.19573,-87.95397,IL,Lake,Buffalo Grove
A-3446696,42.360567,-88.011485,IL,Lake,Grayslake
A-168231,41.954678,-87.6446,IL,Cook,Chicago
A-167616,41.856968,-88.160934,IL,DuPage,Wheaton
A-3451931,41.48582,-88.20483,IL,Will,Shorewood
A-168381,41.687798,-87.930862,IL,Cook,Lemont
A-167765,42.150791,-87.873451,IL,Cook,Northbrook
A-3446760,41.746564,-87.855907,IL,Cook,Willow Springs
A-168581,41.832413,-87.694962,IL,Cook,Chicago
A-168979,41.967842,-88.080086,IL,DuPage,Bloomingdale
A-167773,41.890701,-88.233963,IL,Dupage,West Chicago
A-3451980,41.75106,-88.01271,IL,DuPage,Downers Grove
A-3453545,41.59824,-88.00728000000002,IL,Will,Homer Glen
A-3446650,42.374967,-88.968389,IL,Winnebago,Caledonia
A-3451840,41.79597,-88.322126,IL,Kane,North Aurora
A-3452061,41.98153,-87.78206,IL,Cook,Chicago
A-167513,42.464924,-87.90340400000002,IL,Lake,Wadsworth
A-167623,42.086674,-88.03138,IL,Cook,Rolling Meadows
A-167372,42.291523,-88.822037,IL,Boone,Belvidere
A-168317,41.597309,-88.130951,IL,Will,Romeoville
A-3447534,41.83151,-88.01677,IL,DuPage,Downers Grove
A-168845,41.600075,-87.925163,IL,Will,Homer Glen
A-167401,41.719749,-87.760345,IL,Cook,Oak Lawn
A-167767,38.691795,-90.030411,IL,Madison,Collinsville
A-3449336,41.86968,-87.88883,IL,Cook,Hillside
A-168862,42.057571,-88.29469300000002,IL,Kane,Elgin
A-3445854,41.57834,-87.63636600000002,IL,Cook,Homewood
A-3453275,42.40942800000001,-87.85499,IL,Lake,Waukegan
A-168124,42.219658,-88.21315,IL,Mchenry,Cary
A-167714,41.969772,-88.34053,IL,Kane,Saint Charles
A-167491,42.008129,-88.203148,IL,Cook,Bartlett
A-168341,42.238243,-88.050896,IL,Lake,Lake Zurich
A-168769,41.804222,-87.590538,IL,Cook,Chicago
A-3445640,42.06052,-87.75565,IL,Cook,Skokie
A-3454484,42.31141,-87.90267,IL,Lake,Libertyville
A-168602,42.378941,-88.089737,IL,Lake,Round Lake Beach
A-3450417,41.68556,-87.66197,IL,Cook,Chicago
A-3451074,42.145987,-88.13609,IL,Lake,Barrington
A-168787,40.105019,-87.674339,IL,Vermilion,Danville
A-3452099,41.75124,-89.69634,IL,Whiteside,Rock Falls
A-168002,41.945522,-87.99539200000002,IL,DuPage,Wood Dale
A-167850,38.599049,-89.985077,IL,St. Clair,Fairview Heights
A-3448913,41.82988,-87.954,IL,DuPage,Oak Brook
A-3452282,41.58277,-87.73366,IL,Cook,Tinley Park
A-168689,41.702904,-88.12539699999998,IL,Will,Bolingbrook
A-168716,41.662819,-87.738777,IL,Cook,Alsip
A-167407,41.903248,-87.67484300000002,IL,Cook,Chicago
A-167761,38.707981,-89.958939,IL,Madison,Collinsville
A-3452078,41.932104,-87.9203,IL,Dupage,Bensenville
A-3448184,42.012189,-88.14468000000002,IL,Cook,Hanover Park
A-167339,42.169876,-88.296318,IL,McHenry,Algonquin
A-3451901,41.816555,-87.826077,IL,Cook,Lyons
A-167499,41.694706,-88.006126,IL,DuPage,Lemont
A-168546,41.783974,-88.148659,IL,Dupage,Naperville
A-3452316,41.51291,-88.04706999999998,IL,Will,Joliet
A-3451136,41.887272,-88.01822800000002,IL,Dupage,Lombard
A-3453263,42.1863,-87.82343,IL,Lake,Highland Park
A-3445990,42.23642,-87.99417,IL,Lake,Mundelein
A-3452449,42.30625,-88.020507,IL,Lake,Grayslake
A-168152,42.41048,-88.03392,IL,Lake,Lindenhurst
A-3448179,42.002748,-87.888287,IL,Cook,Des Plaines
A-168623,41.577805,-87.58201600000002,IL,Cook,South Holland
A-3455291,41.909845,-88.12055,IL,DuPage,Carol Stream
A-167324,41.929115,-87.792938,IL,Cook,Elmwood Park
A-3451726,42.04284000000001,-87.9888,IL,Cook,Arlington Heights
A-3449769,41.63036,-87.86049,IL,Cook,Orland Park
A-168209,41.542191,-87.943237,IL,Will,Mokena
A-167328,42.240257,-87.925262,IL,Lake,Libertyville
A-3452256,41.71342,-87.61718,IL,Cook,Chicago
A-168114,41.850372,-87.744247,IL,Cook,Cicero
A-3447423,41.90062,-88.7167,IL,DeKalb,Dekalb
A-3452008,41.98717,-88.03142,IL,DuPage,Itasca
A-167396,41.832371,-88.107338,IL,Dupage,Wheaton
A-3451390,42.15363,-87.98498000000002,IL,Lake,Buffalo Grove
A-168868,42.035397,-88.24762,IL,Kane,Elgin
A-3452340,42.34089,-87.96363000000002,IL,Lake,Libertyville
A-167362,41.754929,-88.291191,IL,Kane,Aurora
A-3451310,42.43006,-88.19821999999998,IL,Lake,Fox Lake
A-3451943,42.087955,-88.33525,IL,Kane,Elgin
A-167789,41.735401,-88.062836,IL,DuPage,Woodridge
A-168032,42.265236,-88.243011,IL,Mchenry,Crystal Lake
A-168230,41.778896,-87.707977,IL,Cook,Chicago
A-3446128,41.691281,-88.38028100000002,IL,Kendall,Oswego
A-3448175,42.2003,-87.893075,IL,Lake,Lincolnshire
A-3452276,41.65329000000001,-88.13011,IL,Will,Plainfield
A-3447901,42.06651,-88.14493,IL,Cook,Hoffman Estates
A-168695,42.175785,-88.175591,IL,Lake,Barrington
A-168049,41.900188,-88.184639,IL,Dupage,West Chicago
A-3452281,41.279169,-87.81831,IL,Kankakee,Manteno
A-168482,42.122578,-88.481728,IL,Kane,Hampshire
A-3445853,42.335761,-88.11204000000002,IL,Lake,Grayslake
A-168135,42.01379,-88.31460600000004,IL,Kane,Elgin
A-3455285,42.42991,-88.11792,IL,Lake,Lake Villa
A-167325,38.604237,-90.092598,IL,Saint Clair,East Saint Louis
A-3447749,42.25815,-88.15442,IL,Lake,Wauconda
A-3451483,41.73308,-87.96837,IL,DuPage,Darien
A-3451760,41.50651,-87.53373,IL,Cook,Chicago Heights
A-3446439,41.72135,-87.80804,IL,Cook,Hickory Hills
A-3447752,42.370451,-87.882522,IL,Lake,Waukegan
A-168405,42.27887,-87.84568,IL,Lake,Lake Bluff
A-167404,41.83173,-88.201141,IL,Dupage,Warrenville
A-168213,42.248222,-88.961563,IL,Winnebago,Cherry Valley
A-3446026,42.15303,-87.92795600000002,IL,Lake,Buffalo Grove
A-3450376,42.254329,-88.094679,IL,Lake,Wauconda
A-3454494,42.344785,-88.16949,IL,Lake,Ingleside
A-3451392,42.19715,-88.01881999999998,IL,Lake,Lake Zurich
A-167783,42.194386,-88.335548,IL,McHenry,Lake in the Hills
A-168382,41.622669,-87.623222,IL,Cook,South Holland
A-3449304,41.97545,-87.736857,IL,Cook,Chicago
A-168447,41.902912,-88.774117,IL,DeKalb,Dekalb
A-168071,41.951309,-88.20591,IL,DuPage,Bartlett
A-167866,41.564556,-87.85186800000002,IL,Cook,Tinley Park
A-167677,41.913094,-87.626335,IL,Cook,Chicago
A-167615,41.528011,-87.732574,IL,Cook,Matteson
A-168964,41.887947,-87.77201099999998,IL,Cook,Chicago
A-167973,42.10601,-87.868179,IL,Cook,Northbrook
A-168188,41.758385,-87.615128,IL,Cook,Chicago
A-167621,41.946747,-87.68824000000002,IL,Cook,Chicago
A-167471,41.823723,-87.630302,IL,Cook,Chicago
A-168112,42.341053,-88.054008,IL,Lake,Grayslake
A-3449737,42.46677,-87.94675,IL,Lake,Wadsworth
A-167389,41.937103,-88.037437,IL,DuPage,Addison
A-168409,42.101398,-87.767769,IL,Cook,Winnetka
A-3446560,41.58497,-87.68106,IL,Cook,Hazel Crest
A-3449672,41.803449,-88.055981,IL,DuPage,Lisle
A-3447221,41.87427,-87.70957,IL,Cook,Chicago
A-168697,41.76273,-87.800285,IL,Cook,Bridgeview
A-3455171,42.18951,-88.105968,IL,Lake,Lake Zurich
A-3449632,42.08501,-88.07791,IL,Cook,Palatine
A-168042,42.015331,-87.806602,IL,Cook,Niles
A-167540,42.338497,-88.877449,IL,Boone,Belvidere
A-3446638,42.01389,-87.75305,IL,Cook,Skokie
A-167862,42.233841,-88.817406,IL,Boone,Belvidere
A-168607,42.479294,-88.134186,IL,Lake,Antioch
A-167736,41.730919,-87.9272,IL,Dupage,Burr Ridge
A-167863,41.818588,-87.91439100000002,IL,Cook,Hinsdale
A-3453058,42.46627,-88.038228,IL,Lake,Antioch
A-168339,41.798424,-88.28186,IL,Kane,Aurora
A-3449681,41.86325,-87.93148000000002,IL,DuPage,Elmhurst
A-3445946,42.37745,-87.8307,IL,Lake,Waukegan
A-3449517,42.332536,-88.207676,IL,Mchenry,Lakemoor
A-168874,42.34544,-87.92351500000002,IL,Lake,Libertyville
A-168303,38.778828,-89.935997,IL,Madison,Edwardsville
A-167968,41.972046,-88.119659,IL,Dupage,Roselle
A-3451922,41.98469,-87.83185,IL,Cook,Chicago
A-168770,42.168068,-88.59120899999998,IL,McHenry,Marengo
A-3450821,42.385961,-87.98105600000002,IL,Lake,Gurnee
A-167336,41.720947,-87.682076,IL,Cook,Evergreen Park
A-168058,41.76091,-87.892639,IL,Cook,La Grange
A-168661,41.966019,-88.719254,IL,Dekalb,Sycamore
A-3448178,41.90763,-87.88025999999998,IL,Cook,Melrose Park
A-3448172,42.42893,-87.93791,IL,Lake,Wadsworth
A-168510,41.85952,-87.985336,IL,Dupage,Villa Park
A-3449998,42.414541,-88.07219,IL,Lake,Lake Villa
A-3453920,41.831459,-87.78052199999998,IL,Cook,Berwyn
A-168208,41.981628,-88.231339,IL,Dupage,Bartlett
A-3454222,41.86696,-87.65668000000002,IL,Cook,Chicago
A-167438,41.997215,-87.67038000000002,IL,Cook,Chicago
A-3449377,41.690107,-87.78277299999998,IL,Cook,Worth
A-3454102,41.37663,-88.59328000000002,IL,Grundy,Seneca
A-3449008,41.859334,-88.04263900000002,IL,DuPage,Glen Ellyn
A-167751,42.197433,-88.057953,IL,Lake,Lake Zurich
A-167981,41.873188,-88.11492199999998,IL,DuPage,Wheaton
A-3455293,41.88606,-88.27713,IL,Kane,West Chicago
A-3452002,41.64732100000001,-87.66139,IL,Cook,Blue Island
A-167652,41.556419,-87.764061,IL,Cook,Tinley Park
A-167382,41.81662,-88.168243,IL,Dupage,Warrenville
A-168090,38.622131,-90.124054,IL,St. Clair,East Saint Louis
A-3446819,41.947278,-87.95933000000002,IL,Dupage,Bensenville
A-3453418,42.335027,-87.871932,IL,Lake,North Chicago
A-3449629,42.152388,-87.835202,IL,Lake,Deerfield
A-167782,42.235912,-88.338371,IL,Mchenry,Crystal Lake
A-3452313,41.63538,-88.16105999999998,IL,Will,Plainfield
A-3452638,42.44207,-87.8761,IL,Lake,Beach Park
A-168523,41.987671,-88.174095,IL,DuPage,Bartlett
A-167996,42.277172,-88.040756,IL,Lake,Mundelein
A-3448034,42.15407,-88.101844,IL,Cook,Barrington
A-3452612,42.2701,-88.00401,IL,Lake,Mundelein
A-3446631,41.749151,-87.741311,IL,Cook,Chicago
A-168332,41.77222800000001,-88.041565,IL,Dupage,Woodridge
A-3454880,42.01566,-87.92979,IL,Cook,Des Plaines
A-3448728,42.09105,-88.120999,IL,Cook,Barrington
A-3452357,42.32103,-88.14506999999998,IL,Lake,Round Lake
A-3449197,41.86541,-88.20464,IL,DuPage,West Chicago
A-168202,42.02491,-88.282646,IL,Kane,Elgin
A-3448781,41.79001,-87.63150999999998,IL,Cook,Chicago
A-3449355,40.18513,-89.316102,IL,Logan,Lincoln
A-3451939,41.612296,-87.579092,IL,Cook,Dolton
A-3447739,42.06639000000001,-88.260661,IL,Cook,Elgin
A-167753,41.898617,-87.929405,IL,Dupage,Elmhurst
A-168506,42.272243,-88.198441,IL,Lake,Island Lake
A-167335,42.279732,-87.87854,IL,Lake,Lake Forest
A-3445609,42.15375,-88.01783,IL,Lake,Lake Zurich
A-168756,41.88818,-88.151085,IL,DuPage,Winfield
A-167890,42.280056,-87.91194899999998,IL,Lake,Libertyville
A-3449477,42.24049,-87.957613,IL,Lake,Vernon Hills
A-3452674,41.819,-87.73767,IL,Cook,Chicago
A-168486,41.685425,-87.601822,IL,Cook,Chicago
A-167661,42.042339,-88.328598,IL,Kane,Elgin
A-167882,41.603703,-88.16330699999996,IL,Will,Plainfield
A-3447064,41.784953,-87.82911999999997,IL,Cook,La Grange
A-168037,42.217899,-87.820442,IL,Lake,Highland Park
A-168034,42.290588,-88.933708,IL,Boone,Belvidere
A-3447304,41.72142,-87.65063,IL,Cook,Chicago
A-167461,41.667282,-88.102036,IL,Will,Bolingbrook
A-168960,41.766579,-87.966408,IL,Dupage,Darien
A-168182,42.464439,-87.85453000000004,IL,Lake,Zion
A-3451097,41.94842,-87.72163,IL,Cook,Chicago
A-167464,41.699223,-88.040504,IL,Will,Bolingbrook
A-168076,42.308453,-87.85620899999998,IL,Lake,Great Lakes
A-167587,41.996208,-88.06813000000002,IL,Dupage,Roselle
A-3452697,41.90542,-87.98835,IL,DuPage,Addison
A-3452222,42.305536,-88.107052,IL,Lake,Grayslake
A-168669,42.006908,-88.344391,IL,Kane,Elgin
A-3447343,42.205949,-87.989694,IL,Lake,Lake Zurich
A-3446269,41.98388,-87.86216,IL,Cook,Des Plaines
A-168515,41.951477,-87.897072,IL,Cook,Franklin Park
A-3449412,42.127768,-88.002459,IL,Cook,Arlington Heights
A-3448405,42.407476,-88.003979,IL,Lake,Lake Villa
A-168701,42.175877,-88.13578000000004,IL,Lake,Barrington
A-168509,42.400997,-88.110382,IL,Lake,Lake Villa
A-167811,42.368713,-88.139893,IL,Lake,Ingleside
A-3447825,41.749889,-87.70139300000002,IL,Cook,Chicago
A-3452424,41.799092,-87.802025,IL,Cook,Chicago
A-3449946,42.246022,-88.127478,IL,Lake,Wauconda
A-3453249,42.027408,-87.855187,IL,Cook,Park Ridge
A-3450110,41.91986,-88.23805,IL,DuPage,West Chicago
A-168839,42.380566,-88.06037099999998,IL,Lake,Round Lake Beach
A-3446198,42.059413,-88.042361,IL,Cook,Schaumburg
A-167561,41.717617,-87.851295,IL,Cook,Palos Hills
A-167590,42.00615300000001,-88.24700899999998,IL,Kane,Elgin
A-3454472,41.91539,-88.20938000000002,IL,DuPage,West Chicago
A-3448485,42.359002,-87.85575,IL,Lake,Waukegan
A-167889,41.806091,-88.118973,IL,DuPage,Lisle
A-167553,41.919029,-87.95459699999998,IL,Dupage,Elmhurst
A-3452364,41.51253,-88.07567,IL,Will,Joliet
A-168284,41.930374,-88.140121,IL,Dupage,Carol Stream
A-3448336,41.87113,-87.84346,IL,Cook,Maywood
A-168249,41.899517,-88.094376,IL,Dupage,Carol Stream
A-3452098,42.181031,-87.925931,IL,Lake,Lincolnshire
A-167340,41.803806,-88.203468,IL,DuPage,Naperville
A-167749,41.72765,-88.02793100000002,IL,DuPage,Darien
A-167502,41.924728,-87.707176,IL,Cook,Chicago
A-168167,42.117699,-87.972801,IL,Cook,Arlington Heights
A-3454239,42.4363,-88.091239,IL,Lake,Lake Villa
A-167592,41.783634,-87.907791,IL,Cook,Hinsdale
A-3447505,42.025406,-87.959902,IL,Cook,Arlington Heights
A-3445985,41.84108,-87.60969,IL,Cook,Chicago
A-168821,41.801716,-87.935379,IL,Dupage,Hinsdale
A-3446176,42.363423,-88.11171999999998,IL,Lake,Round Lake
A-3451385,41.877234,-87.74516,IL,Cook,Chicago
A-168210,41.766689,-88.06778,IL,Dupage,Woodridge
A-3452671,42.33257,-88.02861999999998,IL,Lake,Grayslake
A-3451928,41.861704,-87.958834,IL,DuPage,Villa Park
A-3445724,42.19341,-88.20919,IL,Mchenry,Fox River Grove
A-3447091,42.383214,-87.95471500000002,IL,Lake,Gurnee
A-167885,41.831429,-87.980438,IL,DuPage,Oak Brook
A-3446992,41.671958,-87.763687,IL,Cook,Alsip
A-3452621,41.8082,-88.08927299999998,IL,DuPage,Lisle
A-3451030,41.53637,-87.96882,IL,Will,New Lenox
A-168527,42.175468,-87.999504,IL,Lake,Lake Zurich
A-3448151,41.83743,-87.66932,IL,Cook,Chicago
A-167786,41.904099,-88.038139,IL,DuPage,Lombard
A-167595,41.84314000000001,-88.06302600000002,IL,Dupage,Glen Ellyn
A-3445751,41.87583,-87.68088,IL,Cook,Chicago
A-3447747,42.24011,-87.89976999999998,IL,Lake,Lake Forest
A-3446849,41.83142,-88.14752,IL,DuPage,Warrenville
A-3453538,41.948487,-87.776609,IL,Cook,Chicago
A-168886,41.855167,-88.091949,IL,Dupage,Wheaton
A-3449452,42.39572800000001,-87.882644,IL,Lake,Waukegan
A-3451434,41.706219,-87.587456,IL,Cook,Chicago
A-3446781,41.86008,-88.01738,IL,Dupage,Lombard
A-168068,42.283363,-88.15609,IL,Lake,Wauconda
A-167566,41.885754,-87.639832,IL,Cook,Chicago
A-3451941,41.983322,-88.142087,IL,DuPage,Hanover Park
A-167897,41.858063,-88.13589499999998,IL,DuPage,Wheaton
A-3451451,42.46567,-87.97218000000002,IL,Lake,Wadsworth
A-3449082,42.15141,-87.96009000000002,IL,Cook,Buffalo Grove
A-3452346,42.14694,-88.3694,IL,Kane,Dundee
A-167452,41.748619,-87.94458,IL,Dupage,Willowbrook
A-168691,41.864235,-88.313789,IL,Kane,Batavia
A-3451761,41.50649,-87.55821999999998,IL,Cook,Lynwood
A-3445659,41.8104,-88.03260999999998,IL,DuPage,Downers Grove
A-3451902,41.59757000000001,-87.71429,IL,Cook,Markham
A-3452544,42.348267,-87.892579,IL,Lake,Waukegan
A-3446744,42.36965,-87.91441,IL,Lake,Gurnee
A-168582,41.736191,-87.625443,IL,Cook,Chicago
A-3451159,41.975487,-88.20707900000002,IL,Dupage,Bartlett
A-3451967,42.42872,-87.91371,IL,Lake,Wadsworth
A-3448495,42.46631,-88.06241999999997,IL,Lake,Antioch
A-3448384,42.36401,-87.970958,IL,Lake,Gurnee
A-167507,42.219826,-88.066895,IL,Lake,Lake Zurich
A-3446994,42.24848,-88.309325,IL,McHenry,Crystal Lake
A-3453170,41.84636,-87.63839,IL,Cook,Chicago
A-3451917,41.788589,-87.956911,IL,Dupage,Clarendon Hills
A-168424,42.368748,-88.169075,IL,Lake,Ingleside
A-3454483,42.06658,-87.99193100000002,IL,Cook,Arlington Heights
A-3451914,42.254703000000006,-87.862461,IL,Lake,Lake Forest
A-167575,42.153004,-87.897217,IL,Lake,Riverwoods
A-3451888,42.10298,-88.01406999999998,IL,Cook,Palatine
A-168489,42.448044,-88.02301800000002,IL,Lake,Lake Villa
A-3452032,42.220364,-87.937976,IL,Lake,Vernon Hills
A-3449952,42.03869,-87.76461,IL,Cook,Morton Grove
A-3449765,42.30623,-87.96036,IL,Lake,Libertyville
A-168281,42.058094,-88.37645699999999,IL,Kane,Elgin
A-3449085,41.909484,-87.80579,IL,Cook,Chicago
A-168977,41.925556,-88.10320300000002,IL,Dupage,Carol Stream
A-167492,42.064537,-88.33567,IL,Kane,Elgin
A-3452213,42.383206,-88.00418,IL,Lake,Lake Villa
A-3449593,42.001041,-88.124251,IL,Cook,Schaumburg
A-167365,42.199844,-87.84214,IL,Lake,Highland Park
A-168778,42.034561,-88.304512,IL,Kane,Elgin
A-168790,42.035435,-87.717056,IL,Cook,Skokie
A-168170,41.835815,-87.803101,IL,Cook,Berwyn
A-168547,42.381985,-87.855438,IL,Lake,Waukegan
A-3452505,42.232421,-88.101453,IL,Lake,Lake Zurich
A-3447058,41.96953,-87.75901,IL,Cook,Chicago
A-3451318,41.872342,-87.788751,IL,Cook,Oak Park
A-3449305,42.219007,-87.96517800000002,IL,Lake,Vernon Hills
A-168141,41.881512,-88.254829,IL,DuPage,West Chicago
A-167367,41.750504,-88.035416,IL,DuPage,Woodridge
A-3452528,42.25426,-88.02006,IL,Lake,Mundelein
A-167663,41.833561,-88.08491500000002,IL,DuPage,Wheaton
A-168633,42.165489,-88.15565500000002,IL,Lake,Barrington
A-167665,42.295185,-87.98365799999998,IL,Lake,Libertyville
A-3447939,42.366318,-88.043142,IL,Lake,Grayslake
A-167474,41.925018,-87.68318199999999,IL,Cook,Chicago
A-168434,41.716873,-88.006935,IL,DuPage,Woodridge
A-3446243,41.717182,-87.944484,IL,DuPage,Willowbrook
A-3445951,41.578056,-87.65835600000003,IL,Cook,Hazel Crest
A-167601,42.464703,-87.881485,IL,Lake,Zion
A-167785,42.220551,-88.295982,IL,McHenry,Crystal Lake
A-168543,42.45401,-87.826836,IL,Lake,Zion
A-168648,42.045826,-88.26769300000002,IL,Kane,Elgin
A-3452521,42.015597,-88.22746500000002,IL,Dupage,Bartlett
A-167971,41.749214,-87.915543,IL,DuPage,Willowbrook
A-168334,41.911385,-88.150429,IL,DuPage,West Chicago
A-3449677,42.010286,-87.908885,IL,Cook,Des Plaines
A-3446173,41.56312,-87.74254,IL,Cook,Country Club Hills
A-168151,38.633221,-90.144257,IL,St. Clair,East Saint Louis
A-3449577,39.959977,-89.67914499999998,IL,Sangamon,Cantrall
A-3451880,42.2005,-87.9171,IL,Lake,Lincolnshire
A-167640,42.063751,-88.07938399999998,IL,Cook,Schaumburg
A-3448218,42.01009000000001,-87.86832199999998,IL,Cook,Des Plaines
A-3446190,42.35703,-88.068043,IL,Lake,Round Lake
A-3448454,38.48281,-90.03542,IL,Saint Clair,Belleville
A-3454419,41.66267,-87.59124,IL,Cook,Chicago
A-167505,42.309879,-87.87715899999998,IL,Lake,North Chicago
A-167770,42.059464,-88.315445,IL,Kane,Elgin
A-167614,41.959366,-87.83669300000004,IL,Cook,Harwood Heights
A-168945,41.990334,-87.751328,IL,Cook,Chicago
A-3452204,41.60325,-87.73647,IL,Cook,Oak Forest
A-3453714,42.046801,-88.138912,IL,Cook,Hoffman Estates
A-3448501,42.264233,-88.17945999999998,IL,Mchenry,Mchenry
A-3452741,41.81278,-87.75729,IL,Cook,Chicago
A-168897,41.878365,-87.99356800000002,IL,Dupage,Lombard
A-3446910,41.83849,-87.9193,IL,DuPage,Oak Brook
A-3448079,42.135229,-87.88703199999998,IL,Cook,Northbrook
A-167732,41.786659,-88.072212,IL,Dupage,Lisle
A-3448086,42.386943,-88.178075,IL,Lake,Fox Lake
A-168728,41.840748,-87.71345500000002,IL,Cook,Chicago
A-167649,41.904938,-88.00859100000002,IL,DuPage,Lombard
A-168021,41.873196,-87.908539,IL,Cook,Hillside
A-3452274,42.4014,-88.13037,IL,Lake,Lake Villa
A-168298,42.275532,-88.964951,IL,Winnebago,Rockford
A-3451366,42.41516,-88.09212,IL,Lake,Lake Villa
A-167356,41.709782,-87.779579,IL,Cook,Chicago Ridge
A-168803,41.658436,-87.64489,IL,Cook,Chicago
A-167626,41.88998400000001,-88.063789,IL,Dupage,Glen Ellyn
A-3449001,42.32303,-88.16473,IL,Lake,Round Lake
A-168562,42.269512,-87.950485,IL,Lake,Libertyville
A-167596,41.847118,-87.942802,IL,DuPage,Oak Brook
A-3451730,41.76093,-87.87301,IL,Cook,La Grange
A-168085,42.42997,-88.031616,IL,Lake,Lake Villa
A-167577,42.359375,-88.090485,IL,Lake,Round Lake
A-168569,41.882084000000006,-88.19455,IL,Dupage,West Chicago
A-168430,41.964432,-88.09925799999998,IL,Dupage,Roselle
A-167380,41.783321,-87.649757,IL,Cook,Chicago
A-3453000,41.696739,-87.80103100000002,IL,Cook,Worth
A-3451930,42.34458,-87.9446,IL,Lake,Gurnee
A-3449774,42.466541,-88.017258,IL,Lake,Antioch
A-167457,41.931454,-87.939651,IL,DuPage,Elmhurst
A-167379,41.839535,-87.999153,IL,DuPage,Lombard
A-168758,41.87515300000001,-87.973824,IL,Dupage,Villa Park
A-168337,42.072807,-88.278847,IL,Kane,Elgin
A-167552,41.98711,-88.05115500000002,IL,DuPage,Medinah
A-3449242,42.231442,-87.873887,IL,Lake,Lake Forest
A-168009,41.50621,-87.577499,IL,Cook,Chicago Heights
A-168843,41.98226500000001,-87.80115500000002,IL,Cook,Chicago
A-167953,42.025188,-88.338974,IL,Kane,Elgin
A-168913,42.213573,-88.009148,IL,Lake,Lake Zurich
A-3449285,41.921369,-87.77561999999998,IL,Cook,Chicago
A-3452005,42.428396,-87.854964,IL,Lake,Zion
A-3453754,41.875371,-88.03285699999998,IL,Dupage,Lombard
A-167763,41.751728,-87.56624599999998,IL,Cook,Chicago
A-168483,41.529892,-88.124901,IL,Will,Joliet
A-3452018,42.3596,-87.837055,IL,Lake,Waukegan
A-3451769,41.70827,-88.02344000000002,IL,DuPage,Woodridge
A-168272,39.71368,-89.643997,IL,Sangamon,Springfield
A-167939,42.250462,-87.84436,IL,Lake,Lake Forest
A-168780,41.988106,-88.192619,IL,Cook,Bartlett
A-168883,41.871017,-87.76451899999998,IL,Cook,Chicago
A-3452280,41.29551,-87.80963,IL,Kankakee,Peotone
A-3449510,41.749423,-88.074894,IL,DuPage,Naperville
A-3451936,42.194311,-88.13538,IL,Lake,Barrington
A-168015,42.382683,-88.11191600000002,IL,Lake,Round Lake Beach
A-168437,41.890297,-88.12155200000002,IL,Dupage,Carol Stream
A-167833,41.99453,-88.21835300000002,IL,Cook,Bartlett
A-3452378,42.36391,-87.95273399999998,IL,Lake,Gurnee
A-167944,41.983158,-88.089943,IL,DuPage,Roselle
A-3451433,41.89511,-87.741912,IL,Cook,Chicago
A-3446773,42.229763,-88.145105,IL,Lake,Barrington
A-3453343,41.610337,-87.682476,IL,Cook,Harvey
A-3451882,42.330449,-87.89503,IL,Lake,Waukegan
A-167692,41.860611,-88.067101,IL,Dupage,Glen Ellyn
A-167496,41.930931,-87.985001,IL,DuPage,Addison
A-168123,42.103397,-88.34429200000002,IL,Kane,Elgin
A-3449955,41.95756,-87.73706999999997,IL,Cook,Chicago
A-3446044,42.18193,-87.96531999999998,IL,Lake,Buffalo Grove
A-168448,41.931068,-88.120163,IL,DuPage,Carol Stream
A-3451907,41.8737,-87.72774100000002,IL,Cook,Chicago
A-3447762,42.397379,-88.065487,IL,Lake,Lake Villa
A-168003,41.899799,-88.217461,IL,Dupage,West Chicago
A-3453560,42.222591,-87.898785,IL,Lake,Lake Forest
A-167843,41.99633,-88.316193,IL,Kane,South Elgin
A-3451897,41.93904000000001,-87.6367,IL,Cook,Chicago
A-3445790,41.870788,-87.871354,IL,Cook,Westchester
A-168242,41.867283,-87.63924399999998,IL,Cook,Chicago
A-168172,42.041752,-88.286865,IL,Kane,Elgin
A-168596,41.749538,-87.97375500000004,IL,DuPage,Darien
A-167440,41.97337,-88.183723,IL,Dupage,Bartlett
A-168416,42.397984,-88.092125,IL,Lake,Lake Villa
A-168014,42.344826,-88.004639,IL,Lake,Grayslake
A-3450109,41.77354,-87.62673000000002,IL,Cook,Chicago
A-168155,41.905689,-87.968849,IL,DuPage,Villa Park
A-167779,41.765137,-87.649284,IL,Cook,Chicago
A-167989,41.574474,-87.837967,IL,Cook,Tinley Park
A-3446710,42.185461,-88.19414300000003,IL,Lake,Barrington
A-3451311,41.846361,-87.972325,IL,Dupage,Oak Brook
A-167481,42.054928,-88.24816899999998,IL,Kane,Elgin
A-168267,42.017925,-88.26725,IL,Kane,Elgin
A-3454700,42.21831,-87.83734,IL,Lake,Lake Forest
A-167377,41.981133,-87.878822,IL,Cook,Chicago
A-3451920,41.848609,-88.203509,IL,Dupage,West Chicago
A-3448618,38.644586,-90.156661,IL,St. Clair,East Saint Louis
A-168333,41.931068,-88.156929,IL,Dupage,Carol Stream
A-167849,41.990494,-88.15728,IL,Cook,Hanover Park
A-3446037,41.8249,-87.71891,IL,Cook,Chicago
A-167921,42.376923,-87.93405899999998,IL,Lake,Gurnee
A-168368,42.011616,-88.360474,IL,Kane,Elgin
A-168975,42.169003,-88.02475,IL,Lake,Lake Zurich
A-3446134,42.203661,-87.937383,IL,Lake,Vernon Hills
A-167430,41.70256,-88.335403,IL,Kendall,Montgomery
A-3453083,41.89036,-87.943804,IL,Dupage,Elmhurst
A-3447668,41.994519,-88.268097,IL,Kane,Elgin
A-3452847,41.89739,-87.65938,IL,Cook,Chicago
A-3451072,42.00445,-88.18708000000002,IL,Cook,Bartlett
A-3447225,38.61689000000001,-90.17824,IL,St. Clair,East Saint Louis
A-3452217,42.297049,-88.034109,IL,Lake,Mundelein
A-3452139,42.476774,-88.109029,IL,Lake,Antioch
A-3449356,39.254031,-88.169884,IL,Cumberland,Greenup
A-3445699,41.848707,-87.69535,IL,Cook,Chicago
A-168890,41.912228000000006,-87.93833199999996,IL,Dupage,Elmhurst
A-167728,41.748867,-87.757584,IL,Cook,Burbank
A-3449077,41.84186,-88.02931,IL,DuPage,Lombard
A-3450667,42.30604,-88.00425,IL,Lake,Libertyville
A-3454748,41.91795,-87.66797,IL,Cook,Chicago
A-168958,41.903782,-87.63961,IL,Cook,Chicago
A-168360,41.786224,-88.056046,IL,DuPage,Downers Grove
A-168302,41.277802,-88.23960100000002,IL,Will,Braidwood
A-3449963,41.88365,-87.92062,IL,Cook,Berkeley
A-168949,41.8815,-87.666039,IL,Cook,Chicago
A-168361,41.997784,-87.68624100000002,IL,Cook,Chicago
A-3448783,41.7149,-87.63618000000002,IL,Cook,Chicago
A-3450289,42.254549,-88.00101,IL,Lake,Mundelein
A-3451935,42.320941,-88.01469200000003,IL,Lake,Grayslake
A-3454309,42.204232,-88.11168,IL,Lake,Lake Zurich
A-3446062,41.88812,-88.10592700000002,IL,DuPage,Carol Stream
A-3452608,42.410792,-87.878191,IL,Lake,Beach Park
A-167816,42.275192,-88.018845,IL,Lake,Mundelein
A-167622,41.662937,-87.662582,IL,Cook,Calumet Park
A-3451900,41.732831,-87.94393000000002,IL,Dupage,Willowbrook
A-3447791,42.24055,-87.940887,IL,Lake,Libertyville
A-3445717,42.34039,-87.979202,IL,Lake,Grayslake
A-167972,41.732464,-88.013115,IL,Dupage,Darien
A-3449173,42.301319,-87.89017199999998,IL,Lake,Lake Bluff
A-167778,41.889763,-87.97912600000002,IL,Dupage,Villa Park
A-168577,41.803875,-87.920013,IL,Dupage,Hinsdale
A-168642,42.351543,-88.02409399999998,IL,Lake,Grayslake
A-168501,41.985184,-88.34072900000002,IL,Kane,South Elgin
A-167684,41.99588,-87.874611,IL,Cook,Des Plaines
A-3452495,42.25909,-88.13916,IL,Lake,Wauconda
A-3451948,42.15364,-88.00024300000003,IL,Lake,Lake Zurich
A-3447331,39.96675,-88.26534000000002,IL,Champaign,Tolono
A-3449348,42.090756,-87.868115,IL,Cook,Northbrook
A-168884,41.847038,-88.146362,IL,Dupage,Wheaton
A-3451871,42.37402,-87.89728000000002,IL,Lake,Gurnee
A-167334,42.227886,-87.97749300000002,IL,Lake,Vernon Hills
A-168038,42.008343,-88.15933199999998,IL,Cook,Streamwood
A-167888,41.981163,-88.06884000000002,IL,Dupage,Roselle
A-168203,41.873959,-88.146141,IL,DuPage,Winfield
A-168948,41.874962,-88.00819399999996,IL,DuPage,Lombard
A-168712,42.00777100000001,-88.328331,IL,Kane,Elgin
A-3449830,42.03613,-87.86737,IL,Cook,Park Ridge
A-3451956,41.81535,-87.95053,IL,Dupage,Westmont
A-3446245,41.93962,-87.70819,IL,Cook,Chicago
A-3452415,41.801696,-88.168159,IL,DuPage,Warrenville
A-3448493,42.466341,-88.079503,IL,Lake,Antioch
A-167567,41.869022,-88.219109,IL,DuPage,West Chicago
A-168540,41.927601,-87.96672099999998,IL,DuPage,Addison
A-167657,41.771507,-87.916351,IL,Dupage,Burr Ridge
A-167541,41.735931,-88.04023000000002,IL,DuPage,Woodridge
A-168614,41.80125,-88.074783,IL,Dupage,Lisle
A-167772,41.887764,-88.136131,IL,DuPage,Wheaton
A-167963,41.733089,-87.79905699999998,IL,Cook,Bridgeview
A-168078,41.97411,-88.024551,IL,DuPage,Itasca
A-168914,42.030212,-88.229279,IL,Kane,Elgin
A-3449275,42.41546,-88.10684,IL,Lake,Lake Villa
A-3445725,41.55278,-87.86068,IL,Will,Orland Park
A-3453425,41.93168,-87.736354,IL,Cook,Chicago
A-167733,41.844688,-87.957802,IL,DuPage,Oak Brook
A-168452,41.66703,-88.125153,IL,Will,Romeoville
A-168706,42.182835,-88.05793800000002,IL,Lake,Lake Zurich
A-167545,41.809227,-87.631454,IL,Cook,Chicago
A-3453476,41.87732800000001,-87.937375,IL,Dupage,Elmhurst
A-3445498,41.82078,-88.19159,IL,DuPage,Warrenville
A-3450409,42.26487,-88.0299,IL,Lake,Mundelein
A-3449279,42.319769,-87.866602,IL,Lake,North Chicago
A-3450168,42.349303000000006,-87.874139,IL,Lake,Waukegan
A-168293,41.807957,-88.103668,IL,DuPage,Lisle
A-168732,41.874088,-88.062042,IL,Dupage,Glen Ellyn
A-3453529,42.3964,-87.948981,IL,Lake,Wadsworth
A-167856,41.890598,-88.03319499999998,IL,Dupage,Lombard
A-3454004,41.764166,-87.70281999999997,IL,Cook,Chicago
A-167393,41.858803,-88.105827,IL,DuPage,Wheaton
A-3452260,41.69825,-87.6554,IL,Cook,Chicago
A-167427,41.837147,-87.623405,IL,Cook,Chicago
A-3452695,41.98398,-87.8479,IL,Cook,Chicago
A-167932,42.363487,-87.929291,IL,Lake,Gurnee
A-167662,42.153881,-88.062874,IL,Lake,Barrington
A-168173,42.45715300000001,-87.840698,IL,Lake,Zion
A-167570,41.711109,-87.79819499999998,IL,Cook,Chicago Ridge
A-3445910,41.62624,-87.6772,IL,Cook,Posen
A-168116,41.87368,-88.091988,IL,Dupage,Wheaton
A-3452399,41.66201,-87.724659,IL,Cook,Alsip
A-168237,41.943832,-88.193962,IL,Dupage,Bartlett
A-167493,42.153782,-88.038589,IL,Cook,Palatine
A-167830,42.392014,-87.86507399999998,IL,Lake,Waukegan
A-167342,42.394226,-87.963165,IL,Lake,Wadsworth
A-168260,41.876881,-88.23520699999996,IL,DuPage,West Chicago
A-168052,41.845627,-88.011597,IL,Dupage,Lombard
A-167735,42.048088,-88.307312,IL,Kane,Elgin
A-168745,41.982899,-87.768349,IL,Cook,Chicago
A-167511,41.918369,-87.919342,IL,Cook,Melrose Park
A-3446143,41.82407,-88.0283,IL,DuPage,Downers Grove
A-3449111,42.067278,-87.86742199999998,IL,Cook,Glenview
A-3449119,41.91246500000001,-88.19073,IL,Dupage,West Chicago
A-3447231,42.319825,-87.961057,IL,Lake,Libertyville
A-3449889,41.75974,-87.90618,IL,Cook,La Grange
A-3448056,38.705331,-89.972202,IL,Madison,Collinsville
A-3447805,41.92362,-88.03796,IL,DuPage,Addison
A-167720,41.58625,-87.694489,IL,Cook,Markham
A-3449489,41.87519,-87.69613000000003,IL,Cook,Chicago
A-167904,41.904606,-88.024681,IL,DuPage,Lombard
A-3445409,41.80609000000001,-88.13242,IL,DuPage,Naperville
A-3452236,41.92563,-87.637625,IL,Cook,Chicago
A-168178,42.34557,-87.85582,IL,Lake,Waukegan
A-167759,41.824474,-87.968948,IL,DuPage,Oak Brook
A-3446668,42.047035,-88.34116,IL,Kane,Elgin
A-168796,41.847462,-87.929245,IL,DuPage,Oak Brook
A-3451963,41.699224,-87.937768,IL,Cook,Lemont
A-167421,42.03632,-88.352051,IL,Kane,Elgin
A-168679,41.888927,-88.082222,IL,Dupage,Glen Ellyn
A-167589,39.120304,-88.554062,IL,Effingham,Effingham
A-168191,41.899963,-88.20423100000002,IL,Dupage,West Chicago
A-168436,41.814297,-87.931343,IL,Dupage,Hinsdale
A-168496,41.802418,-87.789238,IL,Cook,Chicago
A-168721,42.02573,-88.320251,IL,Kane,Elgin
A-168403,41.757057,-87.95459,IL,Dupage,Darien
A-3454933,42.14982,-87.79688,IL,Cook,Northbrook
A-168903,41.686272,-88.038933,IL,Cook,Lemont
A-167451,41.751331,-87.999725,IL,DuPage,Downers Grove
A-3450346,42.429146,-87.87648100000001,IL,Lake,Beach Park
A-3448039,42.15260900000001,-87.822361,IL,Cook,Northbrook
A-3445799,41.899002,-87.68692,IL,Cook,Chicago
A-168039,42.046616,-88.238457,IL,Cook,Elgin
A-167338,42.353142,-87.977654,IL,Lake,Grayslake
A-168204,41.788998,-87.936356,IL,Dupage,Hinsdale
A-168387,41.696423,-88.018761,IL,DuPage,Woodridge
A-3445852,42.350787,-88.110968,IL,Lake,Round Lake
A-167708,41.795666,-88.090965,IL,Dupage,Lisle
A-168449,41.905949,-87.95620699999998,IL,Dupage,Elmhurst
A-3445838,41.63331,-87.57836,IL,Cook,Calumet City
A-168831,41.97372100000001,-88.15029100000002,IL,DuPage,Hanover Park
A-167690,42.030525,-88.26799799999998,IL,Kane,Elgin
A-167680,41.860363,-88.004791,IL,Dupage,Lombard
A-168352,42.197231,-87.980614,IL,Lake,Lake Zurich
A-168371,42.228306,-87.95450600000002,IL,Lake,Vernon Hills
A-3454460,41.84241,-87.65785,IL,Cook,Chicago
A-167606,41.871265,-88.15834,IL,DuPage,Winfield
A-3451912,42.21126,-87.95538,IL,Lake,Lincolnshire
A-168024,41.902439,-88.23822,IL,Dupage,West Chicago
A-168776,42.381195,-88.139832,IL,Lake,Ingleside
A-3452253,41.96341500000001,-87.748081,IL,Cook,Chicago
A-168779,42.309216,-87.91494,IL,Lake,Libertyville
A-3452455,42.166313,-88.06277,IL,Lake,Barrington
A-3447171,41.850209,-88.052839,IL,Dupage,Glen Ellyn
A-3454887,41.86054,-87.973001,IL,Dupage,Villa Park
A-168140,42.07058,-88.320885,IL,Kane,Elgin
A-3449306,42.18265,-87.98945,IL,Lake,Lake Zurich
A-3452540,41.9937,-88.08022,IL,Cook,Roselle
A-3449505,41.781578,-87.94675,IL,DuPage,Hinsdale
A-3451249,42.19725,-88.006504,IL,Lake,Long Grove
A-3447818,41.874893,-87.96153000000002,IL,DuPage,Villa Park
A-3452386,42.002339,-87.74867900000002,IL,Cook,Lincolnwood
A-3452001,41.80883,-87.7689,IL,Cook,Chicago
A-3449256,41.82626,-87.68437,IL,Cook,Chicago
A-168199,41.723022,-87.662743,IL,Cook,Chicago
A-3454221,41.85755,-87.64662,IL,Cook,Chicago
A-3449492,42.34488,-88.067021,IL,Lake,Grayslake
A-3448001,42.325833,-87.83915,IL,Lake,North Chicago
A-167956,42.353081,-87.963638,IL,Lake,Grayslake
A-168223,41.822613,-88.179588,IL,Dupage,Warrenville
A-168978,41.90958,-88.101128,IL,DuPage,Carol Stream
A-3454523,38.76625,-90.11881,IL,Madison,Granite City
A-168592,41.746372,-87.843849,IL,Cook,Justice
A-167420,41.873383,-87.803375,IL,Cook,Oak Park
A-167642,42.236938,-88.112549,IL,Lake,Barrington
A-3448909,41.87592,-87.64754,IL,Cook,Chicago
A-3445612,42.241866,-88.004802,IL,Lake,Mundelein
A-168241,41.906425,-87.919235,IL,Cook,Melrose Park
A-3451122,41.749933,-88.062962,IL,DuPage,Woodridge
A-3452981,42.19682,-87.83059,IL,Lake,Highland Park
A-3450300,42.337903,-88.04249200000002,IL,Lake,Grayslake
A-3449405,42.019694,-87.763458,IL,Cook,Skokie
A-167333,42.313675,-88.098366,IL,Lake,Round Lake
A-167995,42.327896,-88.196732,IL,Lake,McHenry
A-3448982,41.749184,-87.932713,IL,DuPage,Willowbrook
A-167414,42.003994,-88.136177,IL,Cook,Hanover Park
A-168270,42.051308,-88.27813,IL,Kane,Elgin
A-168163,41.994576,-88.20656600000002,IL,Cook,Bartlett
A-168475,41.94585,-88.15023000000002,IL,DuPage,Hanover Park
A-168731,41.995846,-88.335739,IL,Kane,Elgin
A-3452261,42.33807,-87.88606,IL,Lake,Waukegan
A-3451408,42.36001,-88.03327,IL,Lake,Grayslake
A-3454474,41.822874,-87.763129,IL,Cook,Cicero
A-3449443,42.247608,-87.87169899999998,IL,Lake,Lake Forest
A-168254,41.749825,-87.89621700000002,IL,Dupage,Burr Ridge
A-3451952,41.82042,-88.20378000000002,IL,Dupage,Warrenville
A-3451326,42.072639,-88.290438,IL,Kane,Elgin
A-3452551,42.250722,-87.946353,IL,Lake,Vernon Hills
A-3450251,41.867427,-87.943253,IL,DuPage,Elmhurst
A-3451885,41.84573,-87.98379,IL,DuPage,Villa Park
A-3452086,42.293769,-88.16091899999998,IL,Lake,Wauconda
A-3446792,42.28299000000001,-87.95335,IL,Lake,Libertyville
A-3446905,41.793159,-87.821161,IL,Cook,La Grange
A-167636,41.864452,-88.05283399999998,IL,Dupage,Glen Ellyn
A-168847,41.58618900000001,-87.713844,IL,Cook,Country Club Hills
A-3451393,42.35964,-87.89237,IL,Lake,Gurnee
A-3451836,41.751221,-87.867122,IL,Cook,La Grange
A-167982,41.829029,-88.096542,IL,DuPage,Wheaton
A-3449901,42.269054,-87.90941600000002,IL,Lake,Libertyville
A-3448739,41.74746,-87.62487,IL,Cook,Chicago
A-3452388,41.827446,-87.82883000000002,IL,Cook,Riverside
A-167574,41.81266,-88.157761,IL,DuPage,Naperville
A-167480,41.701897,-87.787491,IL,Cook,Chicago Ridge
A-3450254,42.15312,-87.90836,IL,Lake,Deerfield
A-167967,41.976788,-88.12973000000002,IL,Cook,Hanover Park
A-3449389,42.157065,-88.1361,IL,Lake,Barrington
A-3448985,41.769256,-87.612999,IL,Cook,Chicago
A-3446499,42.06668,-88.13387,IL,Cook,Hoffman Estates
A-168917,42.370361,-87.87151300000002,IL,Lake,Waukegan
A-3452510,42.20041,-87.90612,IL,Lake,Lake Forest
A-167347,42.239914,-87.862373,IL,Lake,Lake Forest
A-168325,41.739578,-88.029907,IL,DuPage,Woodridge
A-3448518,42.371049,-87.85559,IL,Lake,Waukegan
A-167742,42.028763,-88.292877,IL,Kane,Elgin
A-167664,42.371624,-88.06665799999998,IL,Lake,Round Lake
A-168367,42.075348,-88.33728,IL,Kane,Elgin
A-167731,41.974869,-88.222771,IL,DuPage,Bartlett
A-168322,41.831398,-87.991348,IL,Dupage,Oak Brook
A-3447402,41.762441,-88.0368,IL,DuPage,Woodridge
A-3446820,41.793267,-87.94709,IL,DuPage,Clarendon Hills
A-3451886,41.69508,-87.59682,IL,Cook,Chicago
A-167746,42.315533,-88.111298,IL,Lake,Grayslake
A-167446,42.04641,-88.254898,IL,Kane,Elgin
A-168895,42.01802100000001,-87.940384,IL,Cook,Elk Grove Village
A-168119,41.901096,-87.939964,IL,Dupage,Elmhurst
A-168840,41.789364,-87.916985,IL,DuPage,Hinsdale
A-3446285,42.02278,-88.30875999999998,IL,Kane,Elgin
A-3451878,41.90837,-87.66315999999998,IL,Cook,Chicago
A-3452570,42.34628,-87.91285,IL,Lake,Gurnee
A-168404,41.75004600000001,-87.96266899999998,IL,Dupage,Darien
A-168087,42.240685,-87.984398,IL,Lake,Mundelein
A-167992,42.360588,-88.00083199999996,IL,Lake,Grayslake
A-168458,41.978691,-88.08028399999998,IL,DuPage,Roselle
A-3448986,42.319966,-87.88045600000002,IL,Lake,North Chicago
A-3448981,42.365691,-87.82839,IL,Lake,Waukegan
A-3450649,42.359874,-87.87445100000002,IL,Lake,Waukegan
A-3447035,41.97777,-87.74715,IL,Cook,Chicago
A-167327,42.319939,-87.895226,IL,Lake,North Chicago
A-3452046,42.46558,-87.96167,IL,Lake,Wadsworth
A-167952,41.760918,-87.944824,IL,DuPage,Willowbrook
A-168036,41.859161,-88.082237,IL,Dupage,Wheaton
A-167484,41.62278,-87.578896,IL,Cook,Calumet City
A-168522,41.869057,-88.19480899999998,IL,DuPage,West Chicago
A-167504,41.914764,-88.129761,IL,Dupage,Carol Stream
A-168585,42.023933,-88.237617,IL,Cook,Elgin
A-168343,41.87146,-87.833031,IL,Cook,Forest Park
A-167799,41.995686,-87.864182,IL,Cook,Des Plaines
A-168881,41.982391,-88.118561,IL,DuPage,Roselle
A-167877,41.851212,-88.03385899999998,IL,Dupage,Lombard
A-167521,42.031979,-88.328941,IL,Kane,Elgin
A-168471,41.798439,-88.10775799999998,IL,Dupage,Lisle
A-3455373,41.990719,-87.67842399999998,IL,Cook,Chicago
A-167990,41.857182,-88.1483,IL,DuPage,Wheaton
A-3452998,41.92462,-87.717486,IL,Cook,Chicago
A-168200,41.550949,-87.789772,IL,Cook,Tinley Park
A-168250,42.15379,-88.028114,IL,Lake,Lake Zurich
A-3451184,42.229743,-87.942177,IL,Lake,Vernon Hills
A-3451167,41.84875,-87.91898,IL,Cook,Hillside
A-3450921,41.67315,-87.66178000000002,IL,Cook,Riverdale
A-3453261,41.75817,-87.62536,IL,Cook,Chicago
A-3455476,41.93412,-87.69955999999998,IL,Cook,Chicago
A-168789,41.95414,-87.681168,IL,Cook,Chicago
A-167709,41.738026,-87.934555,IL,DuPage,Willowbrook
A-168222,42.012993,-88.21759,IL,Cook,Elgin
A-3454348,42.45475,-87.87925200000002,IL,Lake,Zion
A-167719,41.52792700000001,-87.74276,IL,Cook,Matteson
A-168593,41.898567,-88.115623,IL,Dupage,Carol Stream
A-168626,41.895988,-87.9533,IL,Dupage,Elmhurst
A-3452438,41.72347,-87.93406,IL,DuPage,Willowbrook
A-168951,42.031536,-88.257942,IL,Cook,Elgin
A-167847,41.874718,-88.022789,IL,Dupage,Lombard
A-168027,41.945679,-87.786293,IL,Cook,Chicago
A-3446194,41.86581,-87.92173000000003,IL,DuPage,Elmhurst
A-168976,41.96780800000001,-88.110558,IL,Dupage,Roselle
A-168125,41.889786,-88.008522,IL,Dupage,Lombard
A-168047,41.865971,-87.993011,IL,DuPage,Lombard
A-3452604,42.465011,-87.913391,IL,Lake,Wadsworth
A-3453420,41.947635,-87.73785699999998,IL,Cook,Chicago
A-167633,41.97229,-88.173828,IL,Dupage,Bartlett
A-167962,41.854164,-87.965378,IL,Dupage,Oakbrook Terrace
A-3448341,41.889631,-87.64894100000002,IL,Cook,Chicago
A-167469,41.852894,-87.63095899999998,IL,Cook,Chicago
A-3452486,41.90906,-87.92896,IL,DuPage,Elmhurst
A-168921,41.753586,-87.879623,IL,Cook,La Grange
A-168440,41.760471,-87.974144,IL,DuPage,Darien
A-3446493,41.99519,-88.16591,IL,Cook,Hanover Park
A-168175,41.888409,-88.092026,IL,DuPage,Carol Stream
A-3445975,41.87132,-87.75471,IL,Cook,Chicago
A-167627,42.014812,-88.33515899999998,IL,Kane,Elgin
A-3446136,42.190288,-87.92916600000002,IL,Lake,Lincolnshire
A-3452603,41.95387,-87.713482,IL,Cook,Chicago
A-3454949,42.39197,-87.85528000000002,IL,Lake,Waukegan
A-167573,42.034943,-88.339729,IL,Kane,Elgin
A-168468,41.87912,-88.244675,IL,Dupage,West Chicago
A-167455,41.883087,-87.816177,IL,Cook,River Forest
A-167865,41.766754,-87.954903,IL,DuPage,Willowbrook
A-168243,41.994881,-88.18555500000002,IL,Dupage,Bartlett
A-3452038,41.707621,-87.65297,IL,Cook,Chicago
A-168844,41.399677,-87.62458000000002,IL,Will,Crete
A-167658,41.836224,-88.20967900000002,IL,Dupage,Warrenville
A-3449181,41.762437,-87.86349200000002,IL,Cook,La Grange
A-167387,41.883739,-88.204041,IL,Dupage,West Chicago
A-3448408,41.385136,-88.1928,IL,Will,Channahon
A-167383,41.859825,-88.027008,IL,DuPage,Lombard
A-3446859,41.77155,-87.90671999999998,IL,Cook,La Grange
A-3452965,41.72977,-87.9774,IL,DuPage,Darien
A-3454141,41.82928,-87.70405,IL,Cook,Chicago
A-3448500,41.880188,-87.79428,IL,Cook,Oak Park
A-167774,41.85438900000001,-87.949066,IL,DuPage,Oak Brook
A-3446265,41.87124,-87.77922,IL,Cook,Oak Park
A-168838,41.939159,-87.723892,IL,Cook,Chicago
A-3454747,41.972798,-87.77825,IL,Cook,Chicago
A-167402,41.600929,-87.681229,IL,Cook,Markham
A-3454149,41.832132,-87.606538,IL,Cook,Chicago
A-168637,41.738667,-88.020241,IL,Dupage,Woodridge
A-3446662,42.28075,-87.97394,IL,Lake,Libertyville
A-168568,41.864075,-88.117386,IL,DuPage,Wheaton
A-168544,41.853241,-87.992363,IL,DuPage,Lombard
A-168705,42.347157,-87.901901,IL,Lake,Waukegan
A-168822,41.905548,-87.978226,IL,Dupage,Villa Park
A-3451844,41.98594,-88.13176999999997,IL,DuPage,Hanover Park
A-3449943,42.35706,-88.04435,IL,Lake,Grayslake
A-3448864,41.79992100000001,-87.6309,IL,Cook,Chicago
A-3448371,41.65378,-87.58355999999998,IL,Cook,Riverdale
A-3454215,41.84544,-87.64905999999998,IL,Cook,Chicago
A-167777,41.905163,-87.997635,IL,DuPage,Lombard
A-168657,42.181793,-87.93517299999998,IL,Lake,Lincolnshire
A-3447946,41.66514,-87.74773,IL,Cook,Alsip
A-167712,41.990162,-88.061134,IL,DuPage,Medinah
A-3446318,41.8355,-87.68427,IL,Cook,Chicago
A-167518,42.035431,-88.28014399999998,IL,Kane,Elgin
A-3445894,42.15995,-87.87441,IL,Lake,Deerfield
A-3452725,41.60413,-87.58334,IL,Cook,South Holland
A-3453433,41.90401,-87.62499,IL,Cook,Chicago
A-168578,41.874706,-88.202423,IL,Dupage,West Chicago
A-167366,42.061062,-88.327179,IL,Kane,Elgin
A-168276,42.218506,-88.057816,IL,Lake,Lake Zurich
A-3450063,41.929486,-87.691192,IL,Cook,Chicago
A-3445570,41.72711,-87.62476,IL,Cook,Chicago
A-167892,41.972832,-88.10276,IL,DuPage,Roselle
A-167472,42.103424,-88.335228,IL,Kane,Dundee
A-167397,41.922508,-87.94626600000002,IL,Dupage,Elmhurst
A-168061,41.785595,-88.081154,IL,DuPage,Lisle
A-3449250,42.339638,-87.89495,IL,Lake,Waukegan
A-168755,41.703648,-88.006439,IL,DuPage,Lemont
A-3449196,42.385272,-87.963422,IL,Lake,Gurnee
A-3452780,41.829614,-87.9182,IL,Cook,Oak Brook
A-168211,41.688667,-88.047539,IL,Will,Woodridge
A-168963,41.84248,-88.085136,IL,Dupage,Wheaton
A-167676,41.832581,-87.945557,IL,DuPage,Oak Brook
A-168132,42.295269,-88.07247199999998,IL,Lake,Grayslake
A-3449108,42.19714000000001,-87.9896,IL,Lake,Long Grove
A-3450013,42.430914,-88.022901,IL,Lake,Lindenhurst
A-167925,41.864002,-88.14280699999998,IL,Dupage,Wheaton
A-3449474,41.714501,-87.64531600000002,IL,Cook,Chicago
A-167422,41.867504,-88.012695,IL,Dupage,Lombard
A-167448,41.833179,-88.02870899999998,IL,DuPage,Downers Grove
A-3445987,42.232124,-87.985927,IL,Lake,Vernon Hills
A-3451970,41.8424,-87.63065,IL,Cook,Chicago
A-168662,41.838989,-88.1017,IL,Dupage,Wheaton
A-167533,41.780174,-87.91667199999998,IL,Cook,Willowbrook
A-3452144,42.21853400000001,-87.846008,IL,Lake,Lake Forest
A-167442,42.002769,-88.144737,IL,Cook,Hanover Park
A-167330,41.809891,-88.074875,IL,DuPage,Lisle
A-3446777,42.30961,-87.89259,IL,Lake,Libertyville
A-3451953,41.89018,-87.935188,IL,Dupage,Elmhurst
A-167378,41.80986400000001,-88.050232,IL,DuPage,Downers Grove
A-168690,42.04287,-88.275818,IL,Kane,Elgin
A-3446774,42.27967,-87.85424,IL,Lake,Lake Bluff
A-3452168,41.828577,-87.62319000000002,IL,Cook,Chicago
A-3446648,41.98234,-87.7926,IL,Cook,Chicago
A-3451334,41.982536,-87.823588,IL,Cook,Chicago
A-167730,41.866898,-88.033737,IL,DuPage,Lombard
A-168548,41.885254,-88.262466,IL,Dupage,West Chicago
A-168851,42.038113,-88.239594,IL,Kane,Elgin
A-168451,41.495544,-87.577667,IL,Cook,Chicago Heights
A-168121,41.797272,-88.08219100000002,IL,Dupage,Lisle
A-3453809,41.83394000000001,-87.63117,IL,Cook,Chicago
A-3453517,42.36404,-87.979323,IL,Lake,Gurnee
A-168968,42.037476,-88.296707,IL,Kane,Elgin
A-3453828,41.817169,-87.922555,IL,DuPage,Hinsdale
A-168584,42.049328,-88.295288,IL,Kane,Elgin
A-168402,41.895515,-88.102295,IL,Dupage,Carol Stream
A-3450338,42.239392,-87.87159,IL,Lake,Lake Forest
A-168220,42.005539,-88.33629599999998,IL,Kane,Elgin
A-168081,42.372272,-87.92218000000004,IL,Lake,Gurnee
A-3451447,41.83501,-88.00596999999998,IL,DuPage,Lombard
A-3448309,41.802077,-88.066645,IL,Dupage,Lisle
A-3455240,41.900221,-87.88372,IL,Cook,Stone Park
A-168717,42.038074,-88.311874,IL,Kane,Elgin
A-168205,42.055599,-88.079636,IL,Cook,Schaumburg
A-3446072,41.87543,-87.67274,IL,Cook,Chicago
A-168576,41.853771,-87.95710799999998,IL,Dupage,Oak Brook
A-168413,41.985401,-88.023567,IL,DuPage,Itasca
A-3449094,41.81494,-87.74954,IL,Cook,Chicago
A-167556,41.859402,-88.059189,IL,Dupage,Glen Ellyn
A-167323,41.874142,-87.719757,IL,Cook,Chicago
A-168197,42.053329,-88.27037800000002,IL,Kane,Elgin
A-3451138,41.92094,-87.67535,IL,Cook,Chicago
A-167490,41.953667,-87.72760799999998,IL,Cook,Chicago
A-168351,41.925156,-88.134132,IL,Dupage,Carol Stream
A-168630,41.987251,-88.150032,IL,Cook,Hanover Park
A-168882,41.98317700000001,-87.870064,IL,Cook,Des Plaines
A-168832,42.006207,-87.895401,IL,Cook,Des Plaines
A-3452485,41.97472,-87.77059,IL,Cook,Chicago
A-168219,41.887993,-87.96916999999998,IL,DuPage,Villa Park
A-167950,41.797539,-87.92456800000002,IL,DuPage,Hinsdale
A-168469,41.967709,-88.206627,IL,Dupage,Bartlett
A-168375,42.380901,-87.947296,IL,Lake,Gurnee
A-167678,41.938095,-88.150337,IL,DuPage,Carol Stream
A-3453480,41.858843,-87.63898,IL,Cook,Chicago
A-3447826,41.742198,-87.70218,IL,Cook,Chicago
A-3448145,42.42902,-87.945625,IL,Lake,Wadsworth
A-3449247,42.161338,-87.98496999999998,IL,Lake,Lake Zurich
A-167808,41.848221,-87.612549,IL,Cook,Chicago
A-168815,38.519882,-88.961739,IL,Marion,Kell
A-167542,41.855125,-87.92961899999996,IL,DuPage,Oak Brook
A-3448730,42.19683,-87.88625,IL,Lake,Lincolnshire
A-3454225,41.866795,-87.64688100000002,IL,Cook,Chicago
A-3450378,42.383546,-87.82611,IL,Lake,Waukegan
A-3452474,42.302384,-87.87576999999997,IL,Lake,Lake Bluff
A-168427,41.898079,-87.969009,IL,Dupage,Villa Park
A-168189,42.037346,-88.32287600000002,IL,Kane,Elgin
A-168629,41.717113,-87.623756,IL,Cook,Chicago
A-168157,42.175468,-87.991997,IL,Lake,Buffalo Grove
A-167740,41.840668,-87.967461,IL,Dupage,Oak Brook
A-3451721,41.94327,-87.71621,IL,Cook,Chicago
A-3448128,42.364647,-87.96351999999997,IL,Lake,Gurnee
A-3446262,41.78255,-87.63128,IL,Cook,Chicago
A-168023,41.873531,-87.735199,IL,Cook,Chicago
A-167986,41.95129,-88.193855,IL,DuPage,Bartlett
A-3448910,41.83651,-87.9574,IL,DuPage,Oak Brook
A-3451436,41.87615,-87.66086,IL,Cook,Chicago
A-168400,41.866383,-87.968422,IL,DuPage,Villa Park
A-168029,41.880749,-88.106773,IL,Dupage,Wheaton
A-3447135,41.84307,-87.99070999999998,IL,DuPage,Oak Brook
A-167943,41.91696500000001,-88.101067,IL,DuPage,Carol Stream
A-3445542,41.986072,-88.08025,IL,Dupage,Roselle
A-3448237,41.860281,-87.617784,IL,Cook,Chicago
A-3449163,41.766202,-87.62595999999998,IL,Cook,Chicago
A-168344,42.421036,-87.855011,IL,Lake,Waukegan
A-168330,41.906559,-88.017609,IL,Dupage,Lombard
A-3454576,41.77426,-87.94644,IL,DuPage,Hinsdale
A-167848,42.029423,-88.311844,IL,Kane,Elgin
A-3448972,42.198557,-87.932139,IL,Lake,Lincolnshire
A-3446659,41.95205,-87.83661,IL,Cook,Chicago
A-168738,41.900524,-88.724007,IL,DeKalb,Dekalb
A-3450607,41.87662,-87.91864,IL,Cook,Berkeley
A-168484,41.553047,-87.853394,IL,Will,Orland Park
A-168218,41.953125,-88.150131,IL,DuPage,Hanover Park
A-168605,41.997231,-87.7435,IL,Cook,Lincolnwood
A-3452601,42.2405,-87.964849,IL,Lake,Vernon Hills
A-167408,41.735962,-87.632675,IL,Cook,Chicago
A-168920,41.859711,-88.034462,IL,DuPage,Glen Ellyn
A-3450844,42.254569,-88.965009,IL,Winnebago,Rockford
A-3449281,41.89237,-87.63709,IL,Cook,Chicago
A-3452348,42.351941,-88.00388000000002,IL,Lake,Grayslake
A-3450455,41.81624,-87.63011,IL,Cook,Chicago
A-168735,41.764378,-87.93541,IL,DuPage,Willowbrook
A-167349,41.896847,-88.009506,IL,Dupage,Lombard
A-167803,41.868118,-88.096428,IL,DuPage,Wheaton
A-167945,41.815441,-88.027596,IL,DuPage,Downers Grove
A-3450071,41.871632,-87.895634,IL,Cook,Hillside
A-3454692,42.0019,-87.86756,IL,Cook,Des Plaines
A-3452037,41.59386,-87.68119,IL,Cook,Markham
A-168615,41.758034,-88.031281,IL,DuPage,Woodridge
A-168319,42.003723,-88.197662,IL,Dupage,Bartlett
A-168074,41.744549,-87.937973,IL,Dupage,Willowbrook
A-3447154,42.131968,-88.008048,IL,Cook,Palatine
A-168454,41.979771,-88.13604699999998,IL,DuPage,Hanover Park
A-168290,41.890003,-87.917778,IL,Cook,Berkeley
A-167413,41.864323,-88.15831,IL,DuPage,Winfield
A-168443,41.751266,-89.6894,IL,Whiteside,Rock Falls
A-3449258,42.17018,-88.01791300000002,IL,Lake,Lake Zurich
A-168396,41.991917,-88.046165,IL,Cook,Roselle
A-3446734,41.759891,-88.069091,IL,Dupage,Woodridge
A-167607,41.862144,-88.194847,IL,DuPage,West Chicago
A-167654,42.006908,-88.315163,IL,Kane,Elgin
A-167593,41.741711,-87.944244,IL,DuPage,Willowbrook
A-168969,42.344677,-88.02409399999998,IL,Lake,Grayslake
A-168566,41.859303,-88.07383,IL,Dupage,Glen Ellyn
A-3445459,41.8509,-87.64492,IL,Cook,Chicago
A-168457,42.052647,-88.315506,IL,Kane,Elgin
A-3451671,41.54201,-87.965,IL,Will,Mokena
A-167895,41.711021,-88.017212,IL,Cook,Lemont
A-3445686,42.37891,-87.9408,IL,Lake,Gurnee
A-3451988,42.28,-87.905178,IL,Lake,Libertyville
A-167704,41.902233,-88.10172299999998,IL,DuPage,Carol Stream
A-167647,42.040184,-87.982613,IL,Cook,Arlington Heights
A-3452289,41.88314,-87.64602,IL,Cook,Chicago
A-167527,41.803684,-87.927269,IL,Dupage,Hinsdale
A-168684,38.615639,-90.171654,IL,St. Clair,East Saint Louis
A-3445774,42.36772,-87.89504000000002,IL,Lake,Gurnee
A-167859,41.929977,-88.150375,IL,DuPage,Carol Stream
A-3452040,42.03716,-88.26767,IL,Kane,Elgin
A-168147,42.197628,-88.11108399999998,IL,Lake,Lake Zurich
A-167431,42.024532,-88.270767,IL,Kane,Elgin
A-3452522,41.767504,-87.94528000000003,IL,DuPage,Willowbrook
A-3448390,41.869636,-87.916351,IL,Cook,Hillside
A-167960,41.869335,-88.109566,IL,Dupage,Wheaton
A-3454005,41.770761,-87.70295,IL,Cook,Chicago
A-3454883,42.20224,-87.83431,IL,Lake,Highland Park
A-167515,41.916405,-88.120583,IL,Dupage,Carol Stream
A-167667,42.030441,-88.236801,IL,Cook,Elgin
A-167602,41.922844,-87.939743,IL,Dupage,Elmhurst
A-167930,42.031193,-88.275177,IL,Kane,Elgin
A-3452159,41.92544,-87.95351,IL,DuPage,Elmhurst
A-168248,41.863297,-88.101135,IL,Dupage,Wheaton
A-168782,41.924606,-88.120552,IL,DuPage,Carol Stream
A-168073,41.736614,-88.008163,IL,DuPage,Darien
A-167395,41.871822,-87.74166899999999,IL,Cook,Chicago
A-167475,41.586288,-87.687347,IL,Cook,Markham
A-3445590,41.82646,-88.02234,IL,DuPage,Downers Grove
A-3448177,42.370462,-87.90261,IL,Lake,Gurnee
A-3447104,42.470942,-87.882908,IL,Lake,Zion
A-3448272,41.157269,-87.66264,IL,Kankakee,Momence
A-3449039,42.30868,-87.86258000000002,IL,Lake,North Chicago
A-3454211,41.83704,-87.67567,IL,Cook,Chicago
A-167955,41.842308,-88.202698,IL,DuPage,Warrenville
A-168618,41.874069,-88.068382,IL,Dupage,Glen Ellyn
