ID,Start_Lat,Start_Lng,State,County,City
A-3454147,30.4034,-87.34246,FL,Escambia,Pensacola
A-117088,25.803728,-80.125626,FL,Miami-Dade,Miami Beach
A-3455002,30.253925,-82.405594,FL,Baker,Sanderson
A-3449187,27.359890000000004,-82.54911,FL,Sarasota,Sarasota
A-3454320,30.505038,-84.848197,FL,Liberty,Bristol
A-118477,28.385841,-80.605591,FL,Brevard,Cape Canaveral
A-116756,26.056023,-81.68763,FL,Collier,Naples
A-3454060,28.75893,-82.09770999999998,FL,Sumter,Sumterville
A-117736,27.10857,-80.26061999999997,FL,Martin,Stuart
A-120080,29.553858,-81.218834,FL,Flagler,Palm Coast
A-119191,27.24176,-81.382233,FL,Highlands,Lake Placid
A-3447308,30.732772,-86.355254,FL,Walton,Defuniak Springs
A-117340,28.145435,-81.45719100000002,FL,Osceola,Kissimmee
A-3452535,30.372551,-81.552074,FL,Duval,Jacksonville
A-118207,28.195171,-82.741241,FL,Pasco,Holiday
A-3452020,30.202258,-85.622773,FL,Bay,Panama City
A-117260,26.170547,-80.8563,FL,Broward,Conservation
A-118949,29.49696,-82.294975,FL,Alachua,Micanopy
A-117843,26.745892,-81.917976,FL,Lee,North Fort Myers
A-116653,28.84511,-81.163391,FL,Volusia,Osteen
A-3454021,30.48848,-84.16363,FL,Leon,Tallahassee
A-116938,27.937677,-82.121201,FL,Hillsborough,Plant City
A-3448428,27.7036,-80.89527,FL,Osceola,Okeechobee
A-3447771,26.46674,-80.08927,FL,Palm Beach,Delray Beach
A-3449818,30.76277,-85.68979,FL,Holmes,Bonifay
A-3447912,29.171446000000003,-81.624696,FL,Lake,Astor
A-119274,29.016613,-82.569191,FL,Citrus,Crystal River
A-117970,25.433098,-80.50147199999998,FL,Miami-Dade,Homestead
A-120003,27.52763400000001,-81.809341,FL,Hardee,Wauchula
A-118657,27.142702000000003,-80.881119,FL,Glades,Okeechobee
A-3450348,26.731029,-81.437673,FL,Hendry,Labelle
A-3446233,30.675086,-86.82964799999998,FL,Santa Rosa,Milton
A-3449303,27.527040000000003,-80.4552,FL,St. Lucie,Fort Pierce
A-119090,28.546465,-81.682327,FL,Lake,Clermont
A-118978,27.19326400000001,-82.12233,FL,De Soto,Sidell
A-117220,27.749102,-82.754616,FL,Pinellas,St Pete Beach
A-116976,28.563034,-82.500214,FL,Hernando,Brooksville
A-3450916,26.141293,-80.425637,FL,Broward,Fort Lauderdale
A-120376,29.551319,-81.877724,FL,Putnam,Interlachen
A-3450032,29.894445,-85.359708,FL,Gulf,Port Saint Joe
A-3453113,29.87536,-82.54259,FL,Alachua,Alachua
A-3453112,29.98226,-81.45935,FL,St. Johns,Saint Augustine
A-3447223,28.45147,-81.09999,FL,Orange,Orlando
A-119787,28.101063,-80.897903,FL,Osceola,Saint Cloud
A-118965,27.918852,-80.51973000000002,FL,Brevard,Grant
A-116947,28.346756,-82.17319499999998,FL,Pasco,Dade City
A-120472,29.17745,-82.089378,FL,Marion,Ocala
A-117479,26.155752,-81.345139,FL,Collier,Immokalee
A-120565,27.916323,-81.72640200000002,FL,Polk,Bartow
A-119292,27.713058,-82.39415699999998,FL,Hillsborough,Ruskin
A-117102,29.220087,-81.10305,FL,Volusia,Daytona Beach
A-3445672,30.27298,-82.75804000000002,FL,Columbia,Lake City
A-116233,26.448023,-81.728661,FL,Lee,Estero
A-118691,26.808735,-80.094444,FL,Palm Beach,Palm Beach Gardens
A-119665,28.664705,-80.844543,FL,Brevard,Mims
A-3448196,26.83394,-81.122235,FL,Glades,Moore Haven
A-119409,25.761057,-80.480377,FL,Miami-Dade,Miami
A-3454827,28.851540000000004,-81.55151,FL,Lake,Sorrento
A-117242,26.961161,-82.353043,FL,Sarasota,Englewood
A-3448081,28.03782,-82.45501,FL,Hillsborough,Tampa
A-119767,29.481728000000004,-81.54518900000002,FL,Putnam,Crescent City
A-117599,27.018225,-81.760696,FL,Charlotte,Punta Gorda
A-118981,26.431599,-81.02774000000002,FL,Hendry,Clewiston
A-117085,27.527136,-81.499542,FL,Highlands,Sebring
A-3446167,28.591558000000006,-81.380173,FL,Orange,Winter Park
A-3446434,30.313922,-81.851727,FL,Duval,Jacksonville
A-117270,26.137384,-80.123932,FL,Broward,Fort Lauderdale
A-117383,27.473755,-82.227402,FL,Manatee,Myakka City
A-120151,28.260391,-81.723076,FL,Polk,Polk City
A-3454950,30.53409000000001,-87.08175,FL,Santa Rosa,Milton
A-3449019,30.070179,-82.193324,FL,Union,Raiford
A-120093,29.002632,-80.939293,FL,Volusia,New Smyrna Beach
A-3454531,28.191782,-81.154614,FL,Osceola,Saint Cloud
A-3454232,29.71435,-82.14669,FL,Alachua,Hawthorne
A-3450040,30.53704,-84.5901,FL,Gadsden,Quincy
A-120683,28.84044500000001,-82.344551,FL,Citrus,Inverness
A-116528,26.568327000000004,-82.101692,FL,Lee,Saint James City
A-119820,29.072206,-81.306175,FL,Volusia,Deland
A-117745,28.285395,-82.486671,FL,Pasco,Land O Lakes
A-120632,28.135904,-80.655052,FL,Brevard,Melbourne
A-117582,28.106033,-81.945107,FL,Polk,Lakeland
A-116562,28.381905,-81.505409,FL,Orange,Orlando
A-3453105,26.97575,-82.0211,FL,Charlotte,Punta Gorda
A-118005,28.955559,-81.960594,FL,Lake,Lady Lake
A-117269,27.294338,-80.417816,FL,St. Lucie,Port Saint Lucie
A-116176,28.721342,-81.834244,FL,Lake,Howey in the Hills
A-3447722,27.58337,-82.59713,FL,Manatee,Palmetto
A-116839,25.942366,-80.306946,FL,Miami-Dade,Hialeah
A-3454387,29.744,-81.34482,FL,St. Johns,Saint Augustine
A-3453653,30.1604,-81.63276,FL,Duval,Jacksonville
A-3453272,29.659621,-82.47308199999998,FL,Alachua,Newberry
A-119956,28.792486,-82.570328,FL,Citrus,Homosassa
A-118825,28.360115000000004,-80.826088,FL,Brevard,Cocoa
A-116374,27.966509,-82.791771,FL,Pinellas,Clearwater
A-3449340,30.72546,-86.57358,FL,Okaloosa,Crestview
A-117342,26.925098,-81.312111,FL,Glades,Moore Haven
A-116536,27.594984000000004,-82.008453,FL,Hardee,Bowling Green
A-119430,27.148506,-82.445465,FL,Sarasota,Nokomis
A-117583,26.711555,-81.71243299999998,FL,Lee,Fort Myers
A-3446081,25.62946,-80.319477,FL,Miami-Dade,Palmetto Bay
A-3448193,28.37177,-81.29812,FL,Orange,Orlando
A-119893,26.301687,-80.250244,FL,Broward,Pompano Beach
A-119678,28.524263,-82.297432,FL,Hernando,Brooksville
A-118649,26.257042,-81.80510699999998,FL,Collier,Naples
A-120022,28.792561,-81.35664399999997,FL,Seminole,Lake Mary
A-118253,27.118654,-81.078987,FL,Glades,Okeechobee
A-119344,28.184811,-82.315636,FL,Pasco,Wesley Chapel
A-119159,26.545855,-81.900726,FL,Lee,Fort Myers
A-3449005,29.675756,-81.583286,FL,Putnam,East Palatka
A-117658,28.382437,-82.656212,FL,Pasco,Hudson
A-3446750,30.478690000000004,-84.35772,FL,Leon,Tallahassee
A-3449962,27.91971,-82.60977,FL,Pinellas,St. Petersburg
A-117924,27.893898,-82.33805799999998,FL,Hillsborough,Riverview
A-3451975,26.625744,-80.17390400000002,FL,Palm Beach,Lake Worth
A-120444,26.561766,-81.58919499999998,FL,Lee,Lehigh Acres
A-116583,27.481716,-82.405563,FL,Manatee,Bradenton
A-3446694,27.70487,-82.216371,FL,Hillsborough,Wimauma
A-117484,28.67312,-81.557693,FL,Orange,Apopka
A-118494,29.393553000000004,-81.137978,FL,Volusia,Ormond Beach
A-3454298,30.43848,-81.713943,FL,Duval,Jacksonville
A-119513,28.607571000000004,-81.207596,FL,Orange,Orlando
A-119472,27.64637,-81.625282,FL,Polk,Fort Meade
A-117275,28.465326,-81.833534,FL,Lake,Clermont
A-118464,28.884483000000003,-81.782387,FL,Lake,Leesburg
A-3452453,29.02002,-82.15576,FL,Marion,Ocala
A-116336,28.274725,-80.970123,FL,Osceola,Saint Cloud
A-118340,27.208935,-81.218765,FL,Highlands,Lake Placid
A-118875,27.754307,-80.52565,FL,Indian River,Vero Beach
A-118519,29.294212,-82.203133,FL,Marion,Ocala
A-119157,25.963621,-80.14698800000002,FL,Miami-Dade,Miami
A-118770,28.0354,-81.043465,FL,Osceola,Saint Cloud
A-3453443,30.25624,-81.44277,FL,Duval,Jacksonville
A-3446240,25.784651,-80.286327,FL,Miami-Dade,Miami
A-119173,26.973433,-80.178001,FL,Martin,Jupiter
A-119611,28.978569,-81.645195,FL,Lake,Altoona
A-3454490,27.964153000000003,-81.87735500000002,FL,Polk,Lakeland
A-118927,25.586992,-80.478409,FL,Miami-Dade,Miami
A-120072,27.468189,-82.699425,FL,Manatee,Bradenton Beach
A-118607,28.126581,-82.575035,FL,Hillsborough,Odessa
A-120103,27.06719600000001,-81.35759,FL,Highlands,Venus
A-117825,28.13793900000001,-81.637924,FL,Polk,Haines City
A-3446998,28.224399,-81.320336,FL,Osceola,Saint Cloud
A-3447401,30.605419,-84.738628,FL,Gadsden,Chattahoochee
A-119626,26.106804,-80.281601,FL,Broward,Fort Lauderdale
A-3451590,28.619711,-82.18441899999998,FL,Sumter,Bushnell
A-117026,28.527685,-80.789597,FL,Brevard,Titusville
A-3451348,28.329049,-82.324283,FL,Pasco,San Antonio
A-3452060,28.5327,-81.52565,FL,Orange,Gotha
A-120319,28.698406,-82.451477,FL,Citrus,Homosassa
A-119747,27.043667,-82.236023,FL,Sarasota,North Port
A-3455115,28.258655,-80.726835,FL,Brevard,Melbourne
A-120194,27.246134,-80.225937,FL,Martin,Jensen Beach
A-119092,28.921282,-81.297676,FL,Volusia,Orange City
A-118882,27.623316,-80.577988,FL,Indian River,Vero Beach
A-117562,28.536961,-80.988007,FL,Orange,Christmas
A-116449,29.477535,-81.336197,FL,Flagler,Bunnell
A-3447659,28.060942,-81.776512,FL,Polk,Auburndale
A-118469,27.23904000000001,-80.98221600000002,FL,Okeechobee,Okeechobee
A-120138,26.40708900000001,-81.896187,FL,Lee,Fort Myers Beach
A-117497,28.818483,-81.945679,FL,Lake,Leesburg
A-117883,27.998308,-80.630463,FL,Brevard,Palm Bay
A-3450508,26.325,-80.11683000000002,FL,Broward,Deerfield Beach
A-120296,27.368216,-82.142776,FL,Manatee,Myakka City
A-120043,27.82052,-81.82164,FL,Polk,Bartow
A-3455442,30.21615,-81.76108,FL,Duval,Jacksonville
A-118244,28.012241,-82.277748,FL,Hillsborough,Seffner
A-3447591,29.10263,-81.0267,FL,Volusia,Port Orange
A-3454121,29.99813,-82.59291999999998,FL,Columbia,Lake City
A-118576,28.20812,-82.185074,FL,Pasco,Zephyrhills
A-116357,28.043522,-82.677711,FL,Pinellas,Oldsmar
A-3455299,25.94214,-80.43896,FL,Miami-Dade,Hialeah
A-119888,28.28283900000001,-81.592628,FL,Osceola,Kissimmee
A-117950,28.892515000000003,-82.484222,FL,Citrus,Lecanto
A-117602,29.521692,-81.67085300000002,FL,Putnam,Satsuma
A-117998,28.037931,-81.533455,FL,Polk,Haines City
A-117637,27.448038,-80.559967,FL,St. Lucie,Fort Pierce
A-3452403,30.45133,-87.22104,FL,Escambia,Pensacola
A-116811,29.028425,-81.18343399999998,FL,Volusia,Deland
A-119445,28.433718,-82.484909,FL,Pasco,Spring Hill
A-118177,27.897518,-81.599762,FL,Polk,Lake Wales
A-3449627,30.31407,-81.665396,FL,Duval,Jacksonville
A-119258,28.46526,-81.396873,FL,Orange,Orlando
A-118664,26.612837,-81.793503,FL,Lee,Fort Myers
A-116566,26.586695,-80.050438,FL,Palm Beach,Lake Worth
A-3449988,30.18813,-85.74774000000002,FL,Bay,Panama City Beach
A-116893,27.416058000000003,-80.38826,FL,St. Lucie,Fort Pierce
A-117291,26.858202,-81.970917,FL,Charlotte,Punta Gorda
A-3450197,28.251799,-80.603399,FL,Brevard,Patrick AFB
A-116399,27.283955,-82.452164,FL,Sarasota,Sarasota
A-118423,27.801538,-82.642624,FL,Pinellas,Saint Petersburg
A-116436,27.843840000000004,-82.832115,FL,Pinellas,Seminole
A-118520,28.811693,-81.684128,FL,Lake,Mount Dora
A-119415,28.51254500000001,-81.28443100000001,FL,Orange,Orlando
A-116169,28.49205,-82.598656,FL,Hernando,Spring Hill
A-120605,28.300892,-81.416016,FL,Osceola,Kissimmee
A-3446880,30.17631,-82.68666999999998,FL,Columbia,Lake City
A-120629,27.998743,-81.99859599999998,FL,Polk,Lakeland
A-118382,27.919312,-82.49044,FL,Hillsborough,Tampa
A-118172,26.68049,-81.598412,FL,Lee,Alva
A-3448055,28.170734000000003,-82.460747,FL,Hillsborough,Lutz
A-117185,28.370615,-81.683617,FL,Lake,Clermont
A-119915,27.490393,-82.526199,FL,Manatee,Bradenton
A-119997,26.272963,-81.68944499999998,FL,Collier,Naples
A-118512,28.87422,-82.09229300000001,FL,Sumter,Wildwood
A-3449885,29.60234,-82.37339,FL,Alachua,Gainesville
A-3451780,30.24992,-81.55696999999998,FL,Duval,Jacksonville
A-3454618,25.53116,-80.37741,FL,Miami-Dade,Homestead
A-3450797,27.210729,-80.334128,FL,St. Lucie,Port Saint Lucie
A-117401,25.994465,-81.59255999999998,FL,Collier,Naples
A-120616,27.099304,-82.343826,FL,Sarasota,Venice
A-3453438,26.70541,-80.04907,FL,Palm Beach,West Palm Beach
A-116226,28.611338,-81.859138,FL,Lake,Groveland
A-3451987,29.029171,-82.0448,FL,Marion,Belleview
A-3452512,27.006133,-82.132025,FL,Charlotte,Port Charlotte
A-3445467,28.25867,-82.65077,FL,Pasco,New Port Richey
A-120567,26.933624,-82.226395,FL,Charlotte,Port Charlotte
A-119368,26.166658,-81.718773,FL,Collier,Naples
A-119359,28.670759000000004,-81.297646,FL,Seminole,Casselberry
A-116574,27.500566,-81.702751,FL,Hardee,Zolfo Springs
A-119856,28.478197,-80.691887,FL,Brevard,Merritt Island
A-117074,27.886395,-82.717163,FL,Pinellas,Clearwater
A-116902,27.594761,-81.895691,FL,Hardee,Bowling Green
A-118313,28.455223,-82.186012,FL,Pasco,Dade City
A-3445565,25.87242,-80.20888000000002,FL,Miami-Dade,Miami
A-118531,25.853373,-80.378731,FL,Miami-Dade,Miami
A-119134,29.25344500000001,-81.203781,FL,Volusia,Ormond Beach
A-117272,26.602058000000003,-81.989822,FL,Lee,Cape Coral
A-118831,28.60953300000001,-82.359055,FL,Hernando,Brooksville
A-117775,25.685591,-80.40870699999998,FL,Miami-Dade,Miami
A-116979,28.452091,-80.874649,FL,Brevard,Cocoa
A-3446604,29.00553,-81.38574,FL,Lake,Deland
A-118777,27.387295,-82.448624,FL,Sarasota,Sarasota
A-3451357,26.222238,-80.185174,FL,Broward,Pompano Beach
A-119946,28.671631,-81.455139,FL,Seminole,Apopka
A-3455230,29.140805,-82.185039,FL,Marion,Ocala
A-119829,26.610369,-81.679222,FL,Lee,Lehigh Acres
A-118652,28.68298900000001,-82.552414,FL,Hernando,Weeki Wachee
A-117380,28.361376,-80.704453,FL,Brevard,Merritt Island
A-3455144,29.778883,-82.510849,FL,Alachua,Alachua
A-116481,27.603544,-82.212807,FL,Manatee,Parrish
A-3446765,28.45165,-81.20356,FL,Orange,Orlando
A-3449312,28.157404,-81.80691999999998,FL,Polk,Polk City
A-119163,26.450645,-81.627655,FL,Lee,Estero
A-118661,27.682795,-82.678398,FL,Pinellas,Saint Petersburg
A-3451913,30.260675,-85.540523,FL,Bay,Panama City
A-3446598,26.5236,-80.1725,FL,Palm Beach,Boynton Beach
A-117652,29.011112,-81.068825,FL,Volusia,New Smyrna Beach
A-119195,28.036884000000004,-82.104378,FL,Hillsborough,Plant City
A-116177,26.714964,-81.811844,FL,Lee,North Fort Myers
A-117891,27.88763,-82.239456,FL,Hillsborough,Valrico
A-116313,27.791918,-82.335236,FL,Hillsborough,Riverview
A-116824,26.029593,-80.352127,FL,Broward,Fort Lauderdale
A-3447994,29.4099,-82.24996999999998,FL,Marion,Reddick
A-119589,28.093576,-82.761284,FL,Pinellas,Palm Harbor
A-118871,27.373121,-80.49797099999998,FL,St. Lucie,Port Saint Lucie
A-118463,28.419867,-82.289932,FL,Pasco,Dade City
A-119402,27.99637,-82.549309,FL,Hillsborough,Tampa
A-3447314,30.45126,-81.61808,FL,Duval,Jacksonville
A-118475,28.547791,-81.093636,FL,Orange,Orlando
A-3453416,26.00965,-80.23169,FL,Broward,Hollywood
A-117427,28.436251,-81.584328,FL,Orange,Windermere
A-119456,27.098949,-82.155495,FL,Sarasota,North Port
A-3451835,30.06957,-81.4986,FL,St. Johns,Saint Johns
A-116928,27.601288,-82.503105,FL,Manatee,Palmetto
A-120156,26.492834,-81.81321,FL,Lee,Fort Myers
A-116325,28.069836,-82.354057,FL,Hillsborough,Tampa
A-116209,26.370707,-81.807846,FL,Lee,Bonita Springs
A-118269,29.338053,-81.061134,FL,Volusia,Ormond Beach
A-119448,27.69400000000001,-81.54364,FL,Polk,Frostproof
A-117160,28.298204,-81.239014,FL,Osceola,Saint Cloud
A-3452503,26.19993,-80.29613,FL,Broward,Fort Lauderdale
A-119248,26.493376,-81.97805,FL,Lee,Fort Myers
A-120179,28.924519,-82.583893,FL,Citrus,Crystal River
A-116534,28.7467,-80.88713100000002,FL,Brevard,Mims
A-117197,27.963139,-82.40181,FL,Hillsborough,Tampa
A-118250,27.44779,-82.60730699999998,FL,Manatee,Bradenton
A-117193,28.757259,-81.26870699999998,FL,Seminole,Sanford
A-119870,28.143955,-82.66615300000002,FL,Pinellas,Tarpon Springs
A-3453118,30.33153,-81.763,FL,Duval,Jacksonville
A-118556,28.534031,-82.40727199999998,FL,Hernando,Brooksville
A-117238,28.657579,-82.103302,FL,Sumter,Bushnell
A-116924,28.557461,-81.787903,FL,Lake,Clermont
A-3445673,26.70764,-80.13825,FL,Palm Beach,West Palm Beach
A-116948,28.747435,-81.509026,FL,Orange,Apopka
A-118283,28.260275,-81.506821,FL,Osceola,Kissimmee
A-118001,28.236567,-82.38765,FL,Pasco,Wesley Chapel
A-116681,26.663879,-81.886742,FL,Lee,North Fort Myers
A-117295,25.75318,-80.20481099999998,FL,Miami-Dade,Miami
A-119196,27.478554,-81.42693299999998,FL,Highlands,Sebring
A-3453810,29.13458,-81.12064000000002,FL,Volusia,Daytona Beach
A-3445719,30.7006,-86.74664,FL,Okaloosa,Holt
A-119341,29.475616,-81.18383,FL,Flagler,Flagler Beach
A-119691,28.370979,-82.542328,FL,Pasco,Spring Hill
A-3449330,28.710736,-81.37932099999998,FL,Seminole,Longwood
A-118083,26.987213,-81.93701899999998,FL,Charlotte,Punta Gorda
A-120091,28.452641,-80.979065,FL,Orange,Christmas
A-119662,26.062794,-80.164124,FL,Broward,Fort Lauderdale
A-119740,28.896355,-81.68705,FL,Lake,Umatilla
A-118767,27.68383,-82.47361,FL,Hillsborough,Ruskin
A-3453154,30.14213,-81.54142,FL,Duval,Jacksonville
A-116465,28.381668,-80.92040300000002,FL,Orange,Christmas
A-3453183,29.82149,-81.37706,FL,St. Johns,Saint Augustine
A-120561,27.035854,-82.397842,FL,Sarasota,Venice
A-117338,28.027182,-82.18695100000002,FL,Hillsborough,Plant City
A-116592,25.758305,-80.368416,FL,Miami-Dade,Miami
A-3449536,28.432240000000004,-80.7602,FL,Brevard,Cocoa
A-3449326,28.068507,-80.701695,FL,Brevard,Melbourne
A-116503,26.883242,-80.128235,FL,Palm Beach,Palm Beach Gardens
A-120591,27.617609,-81.514534,FL,Highlands,Avon Park
A-117651,26.154535,-81.63874100000002,FL,Collier,Naples
A-118282,28.102886,-80.58126800000002,FL,Brevard,Indialantic
A-117634,28.384712,-81.397224,FL,Orange,Orlando
A-3449736,30.5019,-84.24271999999998,FL,Leon,Tallahassee
A-116939,28.548401,-81.447418,FL,Orange,Orlando
A-117177,27.269932,-82.530624,FL,Sarasota,Sarasota
A-120521,28.323151,-82.416504,FL,Pasco,Land O Lakes
A-120568,26.152855,-81.796341,FL,Collier,Naples
A-117773,27.551422,-82.369087,FL,Manatee,Parrish
A-118096,28.984632,-81.248489,FL,Volusia,Deland
A-118833,28.22491500000001,-81.64534,FL,Polk,Davenport
A-120513,27.627666,-81.82465400000002,FL,Hardee,Bowling Green
A-3453684,25.70637,-80.28693,FL,Miami-Dade,Miami
A-118968,28.453794,-81.47451,FL,Orange,Orlando
A-3451951,25.497576,-80.447974,FL,Miami-Dade,Homestead
A-116239,28.196814,-82.533424,FL,Pasco,Land O Lakes
A-3453370,27.96115,-82.69791,FL,Pinellas,Clearwater
A-116668,27.848022,-80.48912,FL,Indian River,Sebastian
A-117828,28.569857,-81.593063,FL,Orange,Winter Garden
A-3447636,28.024201,-81.925271,FL,Polk,Lakeland
A-117928,27.544882,-82.45165300000002,FL,Manatee,Parrish
A-3446224,26.37815,-80.17104,FL,Palm Beach,Boca Raton
A-3453806,26.128293,-80.20228900000002,FL,Broward,Fort Lauderdale
A-120313,28.52289600000001,-82.219749,FL,Hernando,Brooksville
A-119164,28.587336,-81.29467,FL,Orange,Winter Park
A-118249,29.21894600000001,-82.152313,FL,Marion,Ocala
A-3454302,27.143256,-80.193729,FL,Martin,Stuart
A-117553,28.320917,-82.699272,FL,Pasco,Port Richey
A-118585,28.954004,-82.120644,FL,Sumter,Oxford
A-119989,25.666931,-80.481071,FL,Miami-Dade,Miami
A-119954,29.465895,-81.25784300000002,FL,Flagler,Bunnell
A-3449043,26.109841,-80.354799,FL,Broward,Fort Lauderdale
A-118254,28.672825,-81.77936600000002,FL,Lake,Howey in the Hills
A-118996,28.815401,-81.426201,FL,Lake,Sorrento
A-3449707,28.68526,-81.22645,FL,Seminole,Oviedo
A-119991,28.1915,-82.607574,FL,Hillsborough,Odessa
A-120442,27.712511,-82.321556,FL,Hillsborough,Wimauma
A-116569,28.917513,-81.221275,FL,Volusia,Deltona
A-118211,26.394522,-80.09414699999998,FL,Palm Beach,Boca Raton
A-3449028,26.9459,-81.76083,FL,Charlotte,Punta Gorda
A-3446701,30.514166,-87.151209,FL,Escambia,Pensacola
A-120515,27.513355,-82.636513,FL,Manatee,Bradenton
A-117781,28.295927,-81.32208299999998,FL,Osceola,Kissimmee
A-119447,28.165596,-81.735916,FL,Polk,Lake Alfred
A-119849,28.358263,-81.572563,FL,Orange,Orlando
A-117011,26.556309,-81.750229,FL,Lee,Fort Myers
A-116321,28.023861,-82.746895,FL,Pinellas,Dunedin
A-116402,28.245472,-82.244896,FL,Pasco,Zephyrhills
A-3454527,27.820940000000004,-82.743346,FL,Pinellas,Saint Petersburg
A-116138,28.256489,-82.320145,FL,Pasco,Wesley Chapel
A-3446762,30.50278,-87.26848000000003,FL,Escambia,Pensacola
A-3455175,26.453815,-80.1746,FL,Palm Beach,Delray Beach
A-116580,28.512695,-81.15387,FL,Orange,Orlando
A-116485,26.331472,-81.750259,FL,Lee,Bonita Springs
A-3448547,30.191640000000003,-81.69469000000002,FL,Duval,Jacksonville
A-116847,28.086128,-82.504662,FL,Hillsborough,Tampa
A-3445507,28.204812,-80.661866,FL,Brevard,Melbourne
A-117571,28.665558,-80.91377299999998,FL,Brevard,Mims
A-3446399,30.57181,-84.678422,FL,Gadsden,Quincy
A-120688,27.818018,-80.551613,FL,Indian River,Fellsmere
A-118204,28.373541,-81.229378,FL,Orange,Orlando
A-116798,28.235090000000003,-81.433975,FL,Osceola,Kissimmee
A-119772,27.9377,-82.285782,FL,Hillsborough,Brandon
A-118101,25.941505,-80.229485,FL,Miami-Dade,Miami Gardens
A-116766,27.199261,-82.490273,FL,Sarasota,Osprey
A-119558,27.952887,-82.05532099999998,FL,Polk,Lakeland
A-119502,26.660238,-81.956497,FL,Lee,Cape Coral
A-3455406,27.215191,-80.400871,FL,St. Lucie,Port Saint Lucie
A-118009,27.442692,-81.483345,FL,Highlands,Sebring
A-116848,28.501774,-82.526421,FL,Hernando,Spring Hill
A-116140,28.551901,-80.85144,FL,Brevard,Titusville
A-118081,28.170519,-82.394035,FL,Hillsborough,Tampa
A-119277,28.818869,-81.77350600000003,FL,Lake,Tavares
A-117403,26.756802,-81.760857,FL,Lee,North Fort Myers
A-3447960,28.331478000000004,-82.237189,FL,Pasco,Dade City
A-117942,28.4659,-81.33075,FL,Orange,Orlando
A-3455247,27.42491,-82.530914,FL,Manatee,Sarasota
A-3453783,28.83436,-82.04039,FL,Sumter,Wildwood
A-117165,28.507343,-81.611847,FL,Orange,Winter Garden
A-118970,27.981535,-82.335075,FL,Hillsborough,Tampa
A-3455337,30.32079,-81.45043000000003,FL,Duval,Jacksonville
A-116156,27.846132,-82.38160699999997,FL,Hillsborough,Gibsonton
A-119309,28.331226,-82.593254,FL,Pasco,Hudson
A-117835,27.748373,-82.679314,FL,Pinellas,Saint Petersburg
A-119955,26.310272,-80.186363,FL,Broward,Pompano Beach
A-119903,26.591385,-80.11460100000002,FL,Palm Beach,Lake Worth
A-118091,26.260412,-80.133423,FL,Broward,Pompano Beach
A-119641,29.006338,-81.30899000000002,FL,Volusia,Deland
A-119145,28.855934,-82.57961999999998,FL,Citrus,Homosassa
A-3455302,30.28725,-81.50493,FL,Duval,Jacksonville
A-117307,28.444735,-82.555412,FL,Hernando,Spring Hill
A-117083,27.314489,-82.108215,FL,Manatee,Myakka City
A-119272,27.041735,-82.299828,FL,Sarasota,Englewood
A-116263,28.755095,-81.938278,FL,Lake,Okahumpka
A-117430,29.042074,-81.00670600000002,FL,Volusia,New Smyrna Beach
A-116645,29.505239000000003,-81.604156,FL,Putnam,Pomona Park
A-3455104,30.40362,-81.6609,FL,Duval,Jacksonville
A-116478,25.594524,-80.376244,FL,Miami-Dade,Miami
A-3451099,25.81228,-80.22870999999998,FL,Miami-Dade,Miami
A-118355,28.786835,-81.212738,FL,Seminole,Sanford
A-120678,27.656233,-80.523979,FL,Indian River,Vero Beach
A-3446398,30.488153000000004,-84.41991800000002,FL,Gadsden,Midway
A-120429,28.528978,-81.386383,FL,Orange,Orlando
A-116526,28.491961,-82.461304,FL,Hernando,Brooksville
A-117452,27.337482,-82.48631999999998,FL,Sarasota,Sarasota
A-117039,28.547199,-81.223412,FL,Orange,Orlando
A-117142,27.653397,-82.375847,FL,Hillsborough,Wimauma
A-119724,26.528687,-80.073273,FL,Palm Beach,Boynton Beach
A-119264,27.444986,-82.471779,FL,Manatee,Bradenton
A-118010,27.937754,-82.202995,FL,Hillsborough,Dover
A-118420,28.610985,-81.467842,FL,Orange,Orlando
A-3455474,25.88111,-80.32339,FL,Miami-Dade,Hialeah
A-117592,27.157806,-80.30210100000002,FL,Martin,Palm City
A-119031,29.079163,-82.184601,FL,Marion,Ocala
A-120297,26.810577,-81.932121,FL,Charlotte,Punta Gorda
A-117841,27.898046,-82.803619,FL,Pinellas,Largo
A-3450186,30.272,-81.61407,FL,Duval,Jacksonville
A-116579,28.448675,-81.26469399999998,FL,Orange,Orlando
A-116951,28.065973,-82.56749,FL,Hillsborough,Tampa
A-116652,28.141176,-81.89559200000002,FL,Polk,Lakeland
A-118627,26.431198,-81.81066899999998,FL,Lee,Estero
A-116694,27.276222,-80.360062,FL,St. Lucie,Port Saint Lucie
A-3453733,27.85792,-82.66416,FL,Pinellas,Saint Petersburg
A-3453018,25.68763,-80.34869,FL,Miami-Dade,Miami
A-117710,26.007742,-80.296234,FL,Broward,Hollywood
A-3449716,27.353878,-80.4139,FL,St. Lucie,Port Saint Lucie
A-117110,26.749205,-80.090401,FL,Palm Beach,West Palm Beach
A-120476,28.056997,-80.62146,FL,Brevard,Melbourne
A-119736,28.499592,-81.718582,FL,Lake,Winter Garden
A-119575,28.33017000000001,-80.775284,FL,Brevard,Cocoa
A-116962,26.62166400000001,-81.597862,FL,Lee,Lehigh Acres
A-118609,26.211676,-81.768417,FL,Collier,Naples
A-3448468,30.21083,-81.51371999999998,FL,Duval,Jacksonville
A-117310,28.32572,-81.490173,FL,Osceola,Kissimmee
A-117128,25.893976,-80.263039,FL,Miami-Dade,Opa Locka
A-118260,28.3466,-81.62955500000002,FL,Osceola,Kissimmee
A-3447570,26.65062,-80.06841,FL,Palm Beach,West Palm Beach
A-117106,29.335913,-81.130966,FL,Volusia,Ormond Beach
A-3450222,27.98157,-82.468016,FL,Hillsborough,Tampa
A-116905,28.67662,-82.19369499999998,FL,Sumter,Bushnell
A-119037,28.291084,-82.18764499999997,FL,Pasco,Zephyrhills
A-118991,26.603243,-81.904083,FL,Lee,Cape Coral
A-3450392,27.0245,-82.05123,FL,Charlotte,Punta Gorda
A-116649,27.534973,-82.561768,FL,Manatee,Palmetto
A-116783,28.236942,-81.55905899999998,FL,Polk,Davenport
A-117331,28.263563,-82.707375,FL,Pasco,New Port Richey
A-119284,28.200768,-82.666473,FL,Pasco,New Port Richey
A-120493,28.554941,-81.85305799999998,FL,Lake,Groveland
A-119185,28.054737,-81.990166,FL,Polk,Lakeland
A-117696,26.068649,-80.393578,FL,Broward,Fort Lauderdale
A-119642,25.911051,-80.167305,FL,Miami-Dade,Miami
A-120208,28.245867,-81.26844,FL,Osceola,Saint Cloud
A-118120,28.390093,-82.600594,FL,Pasco,Hudson
A-120066,27.769037,-82.391853,FL,Hillsborough,Apollo Beach
A-118592,27.853451,-82.299385,FL,Hillsborough,Riverview
A-117271,28.021997,-82.626305,FL,Hillsborough,Tampa
A-116600,25.760965,-80.42488900000002,FL,Miami-Dade,Miami
A-119803,26.115538,-81.75554699999998,FL,Collier,Naples
A-119460,26.547209,-81.80426800000002,FL,Lee,Fort Myers
A-3447313,27.9416,-82.54824,FL,Hillsborough,Tampa
A-118638,25.826456,-80.321899,FL,Miami-Dade,Miami
A-117141,28.538347,-82.349968,FL,Hernando,Brooksville
A-118424,27.973631,-82.162003,FL,Hillsborough,Plant City
A-119224,28.435312,-82.64392099999998,FL,Hernando,Spring Hill
A-119552,28.633165,-81.415031,FL,Orange,Orlando
A-118500,28.621658,-81.540627,FL,Orange,Apopka
A-118939,29.253729,-81.145325,FL,Volusia,Ormond Beach
A-116392,28.56539,-81.165695,FL,Orange,Orlando
A-120133,27.95381,-81.968903,FL,Polk,Lakeland
A-120668,28.874578000000003,-81.271126,FL,Volusia,Deltona
A-116538,28.096373,-82.45201899999998,FL,Hillsborough,Lutz
A-117240,26.272799,-81.742867,FL,Collier,Naples
A-118830,28.093569,-82.696053,FL,Pinellas,Palm Harbor
A-120177,26.711279,-81.64188399999998,FL,Lee,Alva
A-116767,28.832712,-81.321655,FL,Seminole,Sanford
A-118111,28.404303,-80.672935,FL,Brevard,Merritt Island
A-116464,28.036472,-82.040031,FL,Polk,Lakeland
A-116808,27.938532,-82.745941,FL,Pinellas,Clearwater
A-3448149,28.61212,-80.85110999999998,FL,Brevard,Titusville
A-119894,28.121548,-82.373909,FL,Hillsborough,Tampa
A-3454722,30.164986,-81.74748000000002,FL,Clay,Orange Park
A-117953,28.185114,-81.491959,FL,Osceola,Kissimmee
A-118950,26.987341,-82.307266,FL,Sarasota,Englewood
A-118385,28.3652,-81.45542900000002,FL,Orange,Orlando
A-3453487,27.099190000000004,-82.20801999999998,FL,Sarasota,North Port
A-118396,28.394331,-82.195335,FL,Pasco,Dade City
A-3454719,26.0719,-80.21579,FL,Broward,Fort Lauderdale
A-118726,28.12063400000001,-80.705803,FL,Brevard,Melbourne
A-119584,28.662037,-81.506638,FL,Orange,Apopka
A-3453103,25.977535,-80.352389,FL,Broward,Hollywood
A-120013,27.539764,-82.503403,FL,Manatee,Ellenton
A-119029,28.49255,-82.37602199999998,FL,Hernando,Brooksville
A-3446166,28.553390000000004,-81.333895,FL,Orange,Orlando
A-117035,28.488235,-82.650314,FL,Hernando,Hernando Beach
A-116838,28.756857,-81.55980699999998,FL,Orange,Apopka
A-3446035,27.077494,-82.428294,FL,Sarasota,Venice
A-119401,26.166924,-80.25653100000002,FL,Broward,Sunrise
A-116773,28.025457,-82.505013,FL,Hillsborough,Tampa
A-3449784,26.18241,-80.15254,FL,Broward,Fort Lauderdale
A-117680,26.617657,-81.730125,FL,Lee,Lehigh Acres
A-120207,28.333099,-81.357582,FL,Osceola,Kissimmee
A-116432,26.011003,-80.166901,FL,Broward,Hollywood
A-119271,29.172361,-81.084129,FL,Volusia,Daytona Beach
A-116596,26.564608000000003,-81.852997,FL,Lee,Fort Myers
A-117865,26.934353,-80.12829599999998,FL,Palm Beach,Jupiter
A-3450034,28.731158,-81.312547,FL,Seminole,Longwood
A-3448381,28.62247,-81.25805,FL,Seminole,Oviedo
A-117523,29.170021,-82.139427,FL,Marion,Ocala
A-116679,28.330816,-82.64971899999998,FL,Pasco,Hudson
A-3450401,25.74541,-80.3197,FL,Miami-Dade,Miami
A-120344,28.051123,-82.789253,FL,Pinellas,Dunedin
A-3447908,28.42126,-81.43621999999998,FL,Orange,Orlando
A-3445679,25.903214,-80.38436800000002,FL,Miami-Dade,Hialeah
A-119863,28.251745,-82.44963800000002,FL,Pasco,Land O Lakes
A-116347,28.62553,-81.34348299999998,FL,Orange,Maitland
A-3453843,30.261521,-81.740251,FL,Duval,Jacksonville
A-120693,27.203644,-82.440651,FL,Sarasota,Sarasota
A-119858,28.675661,-81.854057,FL,Lake,Leesburg
A-116556,27.531675,-81.741516,FL,Hardee,Zolfo Springs
A-119738,28.906618,-81.96887199999998,FL,Sumter,The Villages
A-3453366,28.14573,-82.74023000000003,FL,Pinellas,Tarpon Springs
A-119729,26.926805,-82.01487,FL,Charlotte,Punta Gorda
A-116982,27.48912,-82.57933,FL,Manatee,Bradenton
A-117084,27.594831,-81.944786,FL,Hardee,Bowling Green
A-3455458,30.419406,-81.56649300000002,FL,Duval,Jacksonville
A-3445706,30.188340000000004,-81.5576,FL,Duval,Jacksonville
A-120191,28.392857,-81.349007,FL,Orange,Orlando
A-120492,27.640348,-82.532448,FL,Manatee,Palmetto
A-117254,27.868679,-82.762558,FL,Pinellas,Seminole
A-120025,29.259964,-81.075073,FL,Volusia,Ormond Beach
A-117308,28.141214,-82.499001,FL,Hillsborough,Lutz
A-120694,28.010721000000004,-82.393524,FL,Hillsborough,Tampa
A-3446236,28.19976,-80.70978000000002,FL,Brevard,Melbourne
A-3450234,27.11454,-82.38951999999998,FL,Sarasota,Venice
A-119234,27.813969,-82.794342,FL,Pinellas,Saint Petersburg
A-118293,27.676119,-82.72583,FL,Pinellas,Saint Petersburg
A-120309,28.47617,-80.779114,FL,Brevard,Cocoa
A-3445574,28.48624,-81.44006,FL,Orange,Orlando
A-3453858,27.492302,-82.47245,FL,Manatee,Bradenton
A-3450688,28.032190000000003,-80.67153,FL,Brevard,Palm Bay
A-3455016,30.32771,-81.52917,FL,Duval,Jacksonville
A-119263,28.891304,-82.548569,FL,Citrus,Crystal River
A-118383,27.990803000000003,-82.23608399999998,FL,Hillsborough,Dover
A-3446663,25.777892,-80.164592,FL,Miami-Dade,Miami Beach
A-119582,27.813763,-82.687729,FL,Pinellas,Saint Petersburg
A-120037,28.49354000000001,-81.500282,FL,Orange,Orlando
A-3451583,29.669807,-82.42768199999998,FL,Alachua,Gainesville
A-119679,27.277395,-81.352837,FL,Highlands,Lake Placid
A-118760,26.562799,-81.94369499999998,FL,Lee,Cape Coral
A-119885,29.186285,-82.184608,FL,Marion,Ocala
A-118345,27.432137,-82.428329,FL,Manatee,Bradenton
A-3446879,29.702956,-82.458546,FL,Alachua,Gainesville
A-116936,28.251926,-82.16507,FL,Pasco,Zephyrhills
A-3446297,30.35911,-81.66873000000002,FL,Duval,Jacksonville
A-3445465,28.295183,-80.70031,FL,Brevard,Rockledge
A-116181,28.684368,-82.49436999999998,FL,Hernando,Brooksville
A-3452011,28.79183,-81.30261,FL,Seminole,Sanford
A-120189,28.332857,-81.534615,FL,Osceola,Kissimmee
A-119905,29.370533,-82.228325,FL,Marion,Reddick
A-117685,26.657354,-81.799324,FL,Lee,Fort Myers
A-3448192,25.734321,-80.251918,FL,Miami-Dade,Miami
A-118792,27.940775,-82.353447,FL,Hillsborough,Tampa
A-120465,27.893373,-82.526848,FL,Hillsborough,Tampa
A-3447829,30.234888,-85.576953,FL,Bay,Panama City
A-3448557,30.327249,-81.622755,FL,Duval,Jacksonville
A-120594,28.567814,-81.744629,FL,Lake,Clermont
A-117821,26.502762,-81.856575,FL,Lee,Fort Myers
A-116804,28.278255,-81.36286899999998,FL,Osceola,Kissimmee
A-118000,27.388966,-82.505096,FL,Manatee,Sarasota
A-118354,27.197922,-82.078407,FL,De Soto,Sidell
A-3448484,30.3208,-81.70904,FL,Duval,Jacksonville
A-118378,28.54903,-81.638306,FL,Orange,Winter Garden
A-119386,26.566381,-81.678329,FL,Lee,Fort Myers
A-118185,28.592171,-82.46751400000002,FL,Hernando,Brooksville
A-118665,25.648787,-80.385201,FL,Miami-Dade,Miami
A-119361,27.413462,-82.572937,FL,Manatee,Sarasota
A-118788,27.4617,-82.648483,FL,Manatee,Bradenton
A-3453893,27.578851,-82.540214,FL,Manatee,Palmetto
A-118982,26.421009,-80.146385,FL,Palm Beach,Boca Raton
A-119358,28.667328,-81.388489,FL,Seminole,Altamonte Springs
A-119304,28.003025,-82.70899200000002,FL,Pinellas,Clearwater
A-3450439,27.88426,-82.847367,FL,Pinellas,Indian Rocks Beach
A-117182,29.028099,-81.271698,FL,Volusia,Deland
A-119072,26.519718,-81.941956,FL,Lee,Fort Myers
A-3449596,28.35743,-80.661613,FL,Brevard,Merritt Island
A-116277,25.811172,-80.386261,FL,Miami-Dade,Miami
A-3445546,28.210751,-82.353531,FL,Pasco,Wesley Chapel
A-117555,28.520954,-82.564552,FL,Hernando,Brooksville
A-120695,28.021063,-82.351166,FL,Hillsborough,Tampa
A-117013,28.291929,-82.62404599999998,FL,Pasco,New Port Richey
A-119420,28.318621000000004,-82.552513,FL,Pasco,Land O Lakes
A-119866,28.451775,-81.161102,FL,Orange,Orlando
A-3454882,27.70588,-82.435875,FL,Hillsborough,Ruskin
A-3446875,30.237287,-82.735326,FL,Columbia,Lake City
A-119088,27.569395,-81.81594799999998,FL,Hardee,Wauchula
A-3450795,30.48517,-81.64305,FL,Duval,Jacksonville
A-3446752,27.641466,-82.670748,FL,Hillsborough,Saint Petersburg
A-119198,28.553967,-81.264893,FL,Orange,Orlando
A-119058,28.568446999999995,-82.383186,FL,Hernando,Brooksville
A-118643,28.364338,-80.750877,FL,Brevard,Cocoa
A-116750,28.506824,-81.83917199999998,FL,Lake,Groveland
A-118748,28.342539,-81.41976899999997,FL,Osceola,Kissimmee
A-116131,27.322887,-82.529732,FL,Sarasota,Sarasota
A-118971,28.57103,-81.482483,FL,Orange,Orlando
A-118241,28.312778,-82.274323,FL,Pasco,San Antonio
A-119874,28.705866,-81.509209,FL,Orange,Apopka
A-118361,27.832888,-82.34219399999998,FL,Hillsborough,Riverview
A-119868,27.502457,-81.776482,FL,Hardee,Wauchula
A-120371,28.450678000000003,-82.597984,FL,Hernando,Spring Hill
A-119193,28.492044,-82.419952,FL,Hernando,Brooksville
A-118301,28.642775,-81.807762,FL,Lake,Groveland
A-116415,28.436214,-81.35946700000002,FL,Orange,Orlando
A-118834,27.937853000000004,-82.24455999999998,FL,Hillsborough,Valrico
A-118314,28.364161,-82.693123,FL,Pasco,Hudson
A-117284,28.414648,-81.2276,FL,Orange,Orlando
A-118437,28.21821,-82.27565799999998,FL,Pasco,Wesley Chapel
A-3451082,28.85168,-82.487821,FL,Citrus,Lecanto
A-3452692,26.1457,-80.46633,FL,Broward,Conservation
A-118157,26.778198,-81.892876,FL,Charlotte,Punta Gorda
A-119718,26.437057,-81.768074,FL,Lee,Estero
A-118479,26.106606,-80.167633,FL,Broward,Fort Lauderdale
A-119688,28.668667,-82.14263199999998,FL,Sumter,Bushnell
A-120526,26.606596000000003,-81.638535,FL,Lee,Lehigh Acres
A-120318,27.75055900000001,-82.63851899999997,FL,Pinellas,Saint Petersburg
A-118940,28.41137100000001,-81.477142,FL,Orange,Orlando
A-117904,27.809816,-80.503426,FL,Indian River,Sebastian
A-119848,28.510038,-81.240196,FL,Orange,Orlando
A-120173,27.344774,-82.446434,FL,Sarasota,Sarasota
A-117620,26.703644,-81.894539,FL,Lee,North Fort Myers
A-116636,27.771782,-82.71219599999998,FL,Pinellas,Saint Petersburg
A-3454322,30.521893,-84.811538,FL,Gadsden,Quincy
A-116608,27.966722,-82.505531,FL,Hillsborough,Tampa
A-118193,28.16992,-82.353752,FL,Hillsborough,Tampa
A-3447100,25.81139,-80.1885,FL,Miami-Dade,Miami
A-3453512,28.74862000000001,-81.36582,FL,Seminole,Lake Mary
A-116868,27.893478,-82.645393,FL,Pinellas,Clearwater
A-118602,27.29879600000001,-82.497566,FL,Sarasota,Sarasota
A-116789,27.922962,-82.401878,FL,Hillsborough,Tampa
A-119646,26.679218,-80.166565,FL,Palm Beach,West Palm Beach
A-117609,28.097706,-82.542877,FL,Hillsborough,Tampa
A-3454510,28.303768,-81.45581700000002,FL,Osceola,Kissimmee
A-3446923,28.72272,-82.55287,FL,Citrus,Homosassa
A-3445414,28.02786,-82.1473,FL,Hillsborough,Plant City
A-120358,25.945976,-80.18602800000002,FL,Miami-Dade,Miami
A-119243,28.263756,-81.652794,FL,Polk,Davenport
A-118016,28.321354,-82.503052,FL,Pasco,Land O Lakes
A-117993,27.985117,-82.754631,FL,Pinellas,Clearwater
A-119805,26.795937,-80.13176,FL,Palm Beach,Palm Beach Gardens
A-118858,28.586367,-81.242439,FL,Orange,Orlando
A-116618,25.781242,-80.336578,FL,Miami-Dade,Miami
A-120546,28.481167,-81.582626,FL,Orange,Windermere
A-116193,28.172878000000004,-82.773415,FL,Pinellas,Tarpon Springs
A-117186,27.505173,-82.374298,FL,Manatee,Bradenton
A-119278,28.233795,-82.73268900000002,FL,Pasco,New Port Richey
A-117371,28.567787,-81.542404,FL,Orange,Ocoee
A-117392,27.974739000000003,-81.936165,FL,Polk,Lakeland
A-3446602,28.42564,-81.39774,FL,Orange,Orlando
A-116573,26.581751,-81.713821,FL,Lee,Fort Myers
A-118266,28.70945900000001,-81.462814,FL,Orange,Apopka
A-120331,28.010386,-82.78376,FL,Pinellas,Dunedin
A-119012,27.449917,-82.560242,FL,Manatee,Bradenton
A-117315,27.748549,-82.335175,FL,Hillsborough,Sun City Center
A-3448637,28.29314,-80.74398000000002,FL,Brevard,Rockledge
A-119970,26.961212,-81.985573,FL,Charlotte,Punta Gorda
A-3451134,26.16538,-80.18692,FL,Broward,Fort Lauderdale
A-119053,28.516838,-81.345428,FL,Orange,Orlando
A-3447420,26.36321,-80.11973,FL,Palm Beach,Boca Raton
A-3451509,25.97209,-80.25248,FL,Broward,Hollywood
A-116316,26.216999,-80.136459,FL,Broward,Pompano Beach
A-116751,28.049044,-82.718323,FL,Pinellas,Palm Harbor
A-120373,25.525215,-80.421982,FL,Miami-Dade,Homestead
A-3446647,26.27656,-80.169,FL,Broward,Pompano Beach
A-117889,25.939743,-80.350616,FL,Miami-Dade,Hialeah
A-3450060,28.452118,-82.451938,FL,Hernando,Brooksville
A-118567,25.987823,-80.196701,FL,Broward,Hollywood
A-118709,28.68372,-80.876915,FL,Brevard,Mims
A-118404,28.29162,-82.675842,FL,Pasco,New Port Richey
A-116795,28.973093,-81.291702,FL,Volusia,Orange City
A-118164,28.056227000000003,-82.319153,FL,Hillsborough,Thonotosassa
A-3453340,26.984221999999995,-82.101676,FL,Charlotte,Port Charlotte
A-118331,26.320791,-81.786087,FL,Lee,Bonita Springs
A-119960,28.390661,-81.541679,FL,Orange,Orlando
A-119495,25.684456,-80.445999,FL,Miami-Dade,Miami
A-117007,29.312485,-81.101936,FL,Volusia,Ormond Beach
A-119122,29.097542,-81.063515,FL,Volusia,Port Orange
A-3449564,27.924,-82.698608,FL,Pinellas,Clearwater
A-3450364,27.849435,-82.700189,FL,Pinellas,Pinellas Park
A-3450372,25.90939,-80.20987,FL,Miami-Dade,Miami
A-120087,27.981539,-82.298172,FL,Hillsborough,Seffner
A-117462,28.43502800000001,-81.31061600000002,FL,Orange,Orlando
A-119655,29.017513,-81.232079,FL,Volusia,Deland
A-3447853,30.3682,-81.76082,FL,Duval,Jacksonville
A-118200,27.254108,-82.49760400000002,FL,Sarasota,Sarasota
A-117414,27.96544500000001,-82.661575,FL,Pinellas,Clearwater
A-119102,28.00238,-82.595467,FL,Hillsborough,Tampa
A-3447675,28.23103900000001,-82.690958,FL,Pasco,New Port Richey
A-3445775,26.84698,-80.12985,FL,Palm Beach,Palm Beach Gardens
A-118131,28.601194,-81.171432,FL,Orange,Orlando
A-118261,28.529615000000003,-81.583298,FL,Orange,Winter Garden
A-3449462,28.53401,-82.47858000000002,FL,Hernando,Brooksville
A-116904,26.194038,-80.209023,FL,Broward,Fort Lauderdale
A-119713,25.846039,-80.24166899999999,FL,Miami-Dade,Miami
A-3447502,27.593688,-82.631687,FL,Manatee,Palmetto
A-120541,28.128075,-81.973602,FL,Polk,Lakeland
A-117548,25.477144,-80.477425,FL,Miami-Dade,Homestead
A-116651,26.884615000000004,-81.995094,FL,Charlotte,Punta Gorda
A-119371,28.818569,-82.316216,FL,Citrus,Inverness
A-118885,28.262238,-81.457138,FL,Osceola,Kissimmee
A-116585,28.23027,-80.69180300000002,FL,Brevard,Melbourne
A-3446435,30.24609,-81.51459,FL,Duval,Jacksonville
A-116306,28.22995,-82.213264,FL,Pasco,Zephyrhills
A-118598,28.196012,-82.485214,FL,Pasco,Land O Lakes
A-119985,28.477055,-81.285454,FL,Orange,Orlando
A-3449347,28.2577,-81.33154999999998,FL,Osceola,Kissimmee
A-119708,26.651192,-80.145393,FL,Palm Beach,West Palm Beach
A-119015,27.079441,-82.38884,FL,Sarasota,Venice
A-120111,26.628878000000004,-81.940865,FL,Lee,Cape Coral
A-116362,25.68371,-80.313873,FL,Miami-Dade,Miami
A-3452936,30.2209,-81.576526,FL,Duval,Jacksonville
A-116268,25.834272,-80.287811,FL,Miami-Dade,Hialeah
A-3450438,27.92318,-82.31909,FL,Hillsborough,Brandon
A-117561,28.713478,-81.342361,FL,Seminole,Longwood
A-119364,28.217682,-81.17759699999998,FL,Osceola,Saint Cloud
A-117121,26.08025,-80.13426199999998,FL,Broward,Dania
A-3454943,25.97124,-80.28799000000002,FL,Broward,Hollywood
A-117699,27.953079,-82.434845,FL,Hillsborough,Tampa
A-116130,27.893793,-82.681877,FL,Pinellas,Clearwater
A-120580,28.218023,-82.45881700000002,FL,Pasco,Land O Lakes
A-3446074,28.17202,-80.67193,FL,Brevard,Melbourne
A-3447880,26.71536,-80.08528000000003,FL,Palm Beach,West Palm Beach
A-118722,28.032515000000004,-82.421211,FL,Hillsborough,Tampa
A-119547,26.463161,-81.830215,FL,Lee,Fort Myers
A-118099,27.916664,-82.77493299999998,FL,Pinellas,Largo
A-3445797,25.78582,-80.25215,FL,Miami-Dade,Miami
A-3454101,28.50963,-81.41458,FL,Orange,Orlando
A-119813,28.328045,-81.58854699999998,FL,Osceola,Kissimmee
A-3451135,28.128505,-82.463572,FL,Hillsborough,Lutz
A-119059,28.47617,-82.491562,FL,Hernando,Spring Hill
A-116175,25.925276,-80.276627,FL,Miami-Dade,Opa Locka
A-3447978,28.64003,-82.21183,FL,Sumter,Bushnell
A-3450103,26.11624,-80.32151,FL,Broward,Fort Lauderdale
A-117751,28.570103000000003,-81.119148,FL,Orange,Orlando
A-3454546,27.99627000000001,-81.96484,FL,Polk,Lakeland
A-3451305,27.944640000000003,-82.467605,FL,Hillsborough,Tampa
A-3449722,28.549477000000003,-81.41362099999998,FL,Orange,Orlando
A-119421,26.511908,-81.78533900000002,FL,Lee,Fort Myers
A-117224,27.98147800000001,-82.373581,FL,Hillsborough,Tampa
A-120163,26.593828,-81.871826,FL,Lee,Fort Myers
A-116364,26.133404,-80.39299799999998,FL,Broward,Fort Lauderdale
A-116389,28.150406,-82.699097,FL,Pinellas,Tarpon Springs
A-117615,27.374426,-80.440384,FL,St. Lucie,Fort Pierce
A-120612,28.120747,-82.715652,FL,Pinellas,Palm Harbor
A-117694,26.212957,-81.73494699999998,FL,Collier,Naples
A-3455121,26.433393,-80.089524,FL,Palm Beach,Delray Beach
A-118381,26.034515,-80.143303,FL,Broward,Dania
A-3453388,28.525999,-81.472036,FL,Orange,Orlando
A-3452910,27.115434000000004,-82.448944,FL,Sarasota,Nokomis
A-3453123,28.32552,-81.39129,FL,Osceola,Kissimmee
A-118797,28.204617,-82.396469,FL,Pasco,Land O Lakes
A-118707,26.062653,-80.354233,FL,Broward,Fort Lauderdale
A-116826,27.446194,-82.505562,FL,Manatee,Bradenton
A-117920,25.879274,-80.35638399999998,FL,Miami-Dade,Miami
A-119757,28.08882,-81.973228,FL,Polk,Lakeland
A-117339,26.173786,-81.750923,FL,Collier,Naples
A-119854,28.405394,-80.705841,FL,Brevard,Merritt Island
A-116500,25.839764,-80.205849,FL,Miami-Dade,Miami
A-3448684,26.61379,-80.06881,FL,Palm Beach,Lake Worth
A-3448394,26.13419,-80.25685,FL,Broward,Fort Lauderdale
A-119403,26.685543,-81.732262,FL,Lee,Fort Myers
A-116752,27.78094500000001,-82.679413,FL,Pinellas,Saint Petersburg
A-117955,27.865528,-82.802299,FL,Pinellas,Seminole
A-117793,27.967409000000004,-82.568054,FL,Hillsborough,Rocky Point
A-119565,28.440140000000003,-81.503998,FL,Orange,Orlando
A-120115,28.477598,-81.239639,FL,Orange,Orlando
A-118532,25.628286,-80.360062,FL,Miami-Dade,Miami
A-119615,27.901657,-82.745758,FL,Pinellas,Largo
A-119375,27.838005,-82.63861800000002,FL,Pinellas,Saint Petersburg
A-116174,25.562574,-80.385262,FL,Miami-Dade,Miami
A-3453890,30.250736,-81.589676,FL,Duval,Jacksonville
A-116489,25.913403,-80.32505,FL,Miami-Dade,Hialeah
A-120255,28.580446,-81.451561,FL,Orange,Orlando
A-3454308,26.513595,-81.899456,FL,Lee,Fort Myers
A-120608,26.532753000000003,-81.871323,FL,Lee,Fort Myers
A-120154,26.243837,-81.768509,FL,Collier,Naples
A-116704,27.716272,-82.679314,FL,Pinellas,Saint Petersburg
A-119227,26.099436,-80.250374,FL,Broward,Fort Lauderdale
A-3451103,28.53362000000001,-82.524239,FL,Hernando,Brooksville
A-120127,27.720812,-82.739868,FL,Pinellas,St Pete Beach
A-3447679,27.35323,-82.51401,FL,Sarasota,Sarasota
A-120041,27.447412,-80.393814,FL,St. Lucie,Fort Pierce
A-116213,28.044106,-81.960274,FL,Polk,Lakeland
A-3446113,28.04775,-81.904027,FL,Polk,Lakeland
A-120269,28.261332,-81.615875,FL,Osceola,Davenport
A-116690,26.136599,-80.157516,FL,Broward,Fort Lauderdale
A-118808,28.951569,-81.991951,FL,Sumter,The Villages
A-3449110,27.137848,-82.41080699999998,FL,Sarasota,Nokomis
A-118847,28.19383400000001,-81.639847,FL,Polk,Davenport
A-116930,28.560015000000003,-81.379829,FL,Orange,Orlando
A-118310,27.495834,-82.61013,FL,Manatee,Bradenton
A-116730,26.300816,-80.218735,FL,Broward,Pompano Beach
A-118476,28.359924,-80.79459399999998,FL,Brevard,Cocoa
A-118332,26.138878,-81.73455799999998,FL,Collier,Naples
A-119455,28.207949,-82.246002,FL,Pasco,Zephyrhills
A-118220,28.47493900000001,-82.547005,FL,Hernando,Spring Hill
A-118158,29.251738,-81.114052,FL,Volusia,Ormond Beach
A-118285,28.612453,-81.315079,FL,Orange,Winter Park
A-120528,28.185806,-82.433357,FL,Hillsborough,Lutz
A-117256,28.849207,-82.37455,FL,Citrus,Inverness
A-118481,26.167234,-80.115166,FL,Broward,Fort Lauderdale
A-117945,28.212618,-81.47749300000002,FL,Osceola,Kissimmee
A-120001,25.732805,-80.35067,FL,Miami-Dade,Miami
A-119840,28.361433,-81.370323,FL,Orange,Orlando
A-3445784,27.772170000000006,-80.55100999999998,FL,Indian River,Fellsmere
A-120073,28.346918,-81.660492,FL,Lake,Clermont
A-119221,27.927849,-82.811913,FL,Pinellas,Clearwater
A-3446296,28.533412,-81.31042,FL,Orange,Orlando
A-116234,26.761789,-81.43843100000002,FL,Hendry,Labelle
A-3446070,28.266261,-80.68989,FL,Brevard,Rockledge
A-120721,28.95539500000001,-81.25779,FL,Volusia,Deland
A-116896,25.732124,-80.384361,FL,Miami-Dade,Miami
A-117574,26.562788,-80.06958,FL,Palm Beach,Boynton Beach
A-3446866,25.78628,-80.21266,FL,Miami-Dade,Miami
A-117227,26.715433,-81.611641,FL,Lee,Alva
A-118987,26.64085,-81.866783,FL,Lee,Fort Myers
A-118557,28.450344,-81.42742199999998,FL,Orange,Orlando
A-118242,27.712313,-82.351883,FL,Hillsborough,Sun City Center
A-117181,28.526718,-81.731895,FL,Lake,Clermont
A-3454610,27.85368,-82.269171,FL,Hillsborough,Valrico
A-120488,27.26447700000001,-80.421944,FL,St. Lucie,Port Saint Lucie
A-3447982,25.49449,-80.41805,FL,Miami-Dade,Homestead
A-3447107,28.35811,-81.487047,FL,Orange,Orlando
A-116304,26.30238300000001,-81.76232900000002,FL,Collier,Naples
A-117431,27.967937,-82.729973,FL,Pinellas,Clearwater
A-3454930,26.94233,-80.15726,FL,Palm Beach,Jupiter
A-3454562,28.638327,-80.830504,FL,Brevard,Titusville
A-118358,28.067402,-82.747398,FL,Pinellas,Palm Harbor
A-119773,26.644173,-81.915504,FL,Lee,North Fort Myers
A-3445911,28.62532,-81.3865,FL,Orange,Maitland
A-116373,28.423553,-82.190727,FL,Pasco,Dade City
A-120352,28.056566,-82.503883,FL,Hillsborough,Tampa
A-3453110,30.196425,-81.739081,FL,Duval,Jacksonville
A-120018,26.164757,-80.227074,FL,Broward,Fort Lauderdale
A-3447228,26.67827,-80.13367,FL,Palm Beach,West Palm Beach
A-3450095,26.499734000000004,-80.07893,FL,Palm Beach,Boynton Beach
A-118894,28.554316,-81.19479399999999,FL,Orange,Orlando
A-3445383,28.541079,-81.49738,FL,Orange,Orlando
A-117741,27.399359000000004,-82.475502,FL,Manatee,Bradenton
A-3455034,28.371356,-81.42567,FL,Orange,Orlando
A-116567,28.639791,-81.443611,FL,Orange,Orlando
A-116743,28.819855,-81.916412,FL,Lake,Leesburg
A-3453029,25.78189,-80.38600000000002,FL,Miami-Dade,Miami
A-3451224,25.686671,-80.377813,FL,Miami-Dade,Miami
A-116279,26.839172,-80.101784,FL,Palm Beach,Palm Beach Gardens
A-117379,28.516453,-81.557373,FL,Orange,Winter Garden
A-117241,28.408054,-81.564964,FL,Orange,Orlando
A-118509,29.266949,-82.193253,FL,Marion,Ocala
A-3450165,30.499172,-84.213872,FL,Leon,Tallahassee
A-116828,28.237976,-82.34362,FL,Pasco,Wesley Chapel
A-117488,28.185049,-82.635818,FL,Pasco,New Port Richey
A-117356,27.498543,-81.494926,FL,Highlands,Sebring
A-117534,28.230175,-80.721992,FL,Brevard,Melbourne
A-116736,25.896236,-80.291779,FL,Miami-Dade,Hialeah
A-3450181,28.29388,-82.70914,FL,Pasco,Port Richey
A-119216,28.304541,-81.572136,FL,Osceola,Kissimmee
A-119486,27.47686,-82.433815,FL,Manatee,Bradenton
A-117236,28.467117,-82.62146,FL,Hernando,Spring Hill
A-3453357,26.15561,-81.66736999999998,FL,Collier,Naples
A-119108,28.472845,-81.369247,FL,Orange,Orlando
A-117384,28.304241,-81.350853,FL,Osceola,Kissimmee
A-119171,27.799038,-82.720917,FL,Pinellas,Saint Petersburg
A-118625,27.564894,-82.565125,FL,Manatee,Palmetto
A-117034,27.867756,-82.326622,FL,Hillsborough,Riverview
A-118181,28.683887,-81.488297,FL,Orange,Apopka
A-117949,27.87911,-82.502228,FL,Hillsborough,Tampa
A-117300,28.688082,-81.40786,FL,Seminole,Longwood
A-3454345,28.91885,-81.26942,FL,Volusia,Orange City
A-116992,28.55909,-81.298416,FL,Orange,Orlando
A-3454583,28.07896,-80.675387,FL,Brevard,Melbourne
A-117436,28.698832,-82.52903,FL,Citrus,Homosassa
A-116638,28.232986,-82.299706,FL,Pasco,Wesley Chapel
A-3447554,28.06595,-82.4548,FL,Hillsborough,Tampa
A-3446424,28.63915,-80.858503,FL,Brevard,Titusville
A-3446445,30.57966,-84.70515,FL,Gadsden,Quincy
A-116800,26.708525,-80.166084,FL,Palm Beach,West Palm Beach
A-118231,25.717663,-80.318474,FL,Miami-Dade,Miami
A-3453411,30.1868,-81.6412,FL,Duval,Jacksonville
A-120147,25.734076,-80.286324,FL,Miami-Dade,Coral Gables
A-119784,27.276577000000003,-82.481041,FL,Sarasota,Sarasota
A-3454476,28.26593,-81.429701,FL,Osceola,Kissimmee
A-3451729,26.08379,-80.190861,FL,Broward,Fort Lauderdale
A-119190,26.249092,-80.166496,FL,Broward,Pompano Beach
A-120607,27.985106,-82.27089699999998,FL,Hillsborough,Seffner
A-120260,27.516434000000004,-82.58255,FL,Manatee,Palmetto
A-118252,27.453447,-82.532043,FL,Manatee,Bradenton
A-117372,28.451487,-81.23119399999999,FL,Orange,Orlando
A-3451849,26.677857,-80.06952,FL,Palm Beach,West Palm Beach
A-118650,25.853874,-80.322411,FL,Miami-Dade,Hialeah
A-118223,27.30837600000001,-82.46419499999998,FL,Sarasota,Sarasota
A-3450159,27.928564,-82.52437900000002,FL,Hillsborough,Tampa
A-118048,27.174208,-82.479744,FL,Sarasota,Osprey
A-116179,26.706861,-80.111076,FL,Palm Beach,West Palm Beach
A-120390,25.435202,-80.474411,FL,Miami-Dade,Homestead
A-119143,25.65483900000001,-80.329018,FL,Miami-Dade,Miami
A-119325,28.464279,-81.561424,FL,Orange,Windermere
A-3448550,30.24318,-81.76275,FL,Duval,Jacksonville
A-117091,28.010773,-82.453804,FL,Hillsborough,Tampa
A-116637,28.040438,-82.558723,FL,Hillsborough,Tampa
A-117347,28.261024,-82.47551700000002,FL,Pasco,Land O Lakes
A-3445690,29.80552,-82.51358,FL,Alachua,Alachua
A-120046,28.612717,-81.43229699999998,FL,Orange,Orlando
A-117133,26.684065000000004,-81.79888199999998,FL,Lee,Fort Myers
A-118893,27.839579,-82.786812,FL,Pinellas,Seminole
A-119782,28.128616,-82.548439,FL,Hillsborough,Lutz
A-120253,28.811258,-81.33766899999998,FL,Seminole,Sanford
A-118115,27.418028000000003,-82.505219,FL,Manatee,Sarasota
A-3449224,30.29209,-81.63141,FL,Duval,Jacksonville
A-116876,28.601215000000003,-82.203445,FL,Sumter,Bushnell
A-119354,28.31983,-81.613716,FL,Osceola,Kissimmee
A-117217,27.388548,-82.53151700000002,FL,Sarasota,Sarasota
A-120549,27.594971,-81.822136,FL,Hardee,Bowling Green
A-3452096,27.95636,-82.3275,FL,Hillsborough,Tampa
A-3452958,27.678194,-80.888779,FL,Osceola,Okeechobee
A-118450,28.495087,-81.330849,FL,Orange,Orlando
A-116410,27.771975,-82.654831,FL,Pinellas,Saint Petersburg
A-118754,28.251904,-82.191223,FL,Pasco,Zephyrhills
A-116253,25.764326,-80.267014,FL,Miami-Dade,Coral Gables
A-117763,28.395561,-82.55119300000001,FL,Pasco,Spring Hill
A-119435,28.184395,-82.556389,FL,Pasco,Odessa
A-118006,25.77033,-80.312096,FL,Miami-Dade,Miami
A-120630,25.920204,-80.244446,FL,Miami-Dade,Opa Locka
A-119815,29.235519,-81.066139,FL,Volusia,Daytona Beach
A-116202,25.98505,-80.16551199999998,FL,Broward,Hallandale
A-118264,28.414173,-81.503235,FL,Orange,Orlando
A-118826,28.483259000000004,-80.8041,FL,Brevard,Cocoa
A-3451021,28.34767,-81.231491,FL,Osceola,Saint Cloud
A-118641,27.828644,-82.666504,FL,Pinellas,Saint Petersburg
A-116860,28.546736,-81.557526,FL,Orange,Winter Garden
A-3454840,28.672724,-82.448234,FL,Hernando,Brooksville
A-116154,27.475216,-82.554825,FL,Manatee,Bradenton
A-120370,27.542839,-82.477417,FL,Manatee,Parrish
A-3448503,27.224954,-82.492757,FL,Sarasota,Sarasota
A-116330,28.001429,-82.48439,FL,Hillsborough,Tampa
A-119054,28.107897,-82.739937,FL,Pinellas,Palm Harbor
A-117151,28.627605,-81.232864,FL,Seminole,Oviedo
A-117619,27.927195,-82.055252,FL,Polk,Bartow
A-119836,28.677986,-81.273048,FL,Seminole,Winter Springs
A-119045,28.226049,-80.647552,FL,Brevard,Merritt Island
A-120135,28.642117,-81.49054699999998,FL,Orange,Apopka
A-3453034,28.486689,-81.475674,FL,Orange,Orlando
A-120664,28.599169,-81.268333,FL,Orange,Orlando
A-3453021,25.807393,-80.305148,FL,Miami-Dade,Miami
A-117837,25.580263,-80.453949,FL,Miami-Dade,Miami
A-118560,28.583273,-81.214798,FL,Orange,Orlando
A-119712,25.604412,-80.351578,FL,Miami-Dade,Palmetto Bay
A-3452800,30.31711,-81.73409000000002,FL,Duval,Jacksonville
A-3448288,28.00495,-82.30769000000002,FL,Hillsborough,Seffner
A-118488,26.279499,-80.238174,FL,Broward,Pompano Beach
A-117846,27.942427,-82.77089699999998,FL,Pinellas,Clearwater
A-3453990,28.04536,-82.34441,FL,Hillsborough,Thonotosassa
A-119247,28.508009,-82.278198,FL,Hernando,Brooksville
A-3451876,25.783607,-80.413889,FL,Miami-Dade,Miami
A-116952,28.39633,-81.456963,FL,Orange,Orlando
A-116477,26.601067,-81.61232,FL,Lee,Lehigh Acres
A-117691,27.98148,-82.44294000000002,FL,Hillsborough,Tampa
A-119475,27.056377,-82.412247,FL,Sarasota,Venice
A-3454738,26.30028,-80.12071999999998,FL,Broward,Deerfield Beach
A-119427,28.05183,-82.014915,FL,Polk,Lakeland
A-117094,27.009279,-82.156738,FL,Charlotte,Port Charlotte
A-3453032,28.231571,-82.66614,FL,Pasco,New Port Richey
A-118121,27.476667,-82.50565300000002,FL,Manatee,Bradenton
A-117344,27.4625,-82.587479,FL,Manatee,Bradenton
A-116657,27.792519,-82.384254,FL,Hillsborough,Gibsonton
A-3452036,30.186177,-81.513478,FL,Duval,Jacksonville
A-119014,27.386433,-82.42403399999998,FL,Sarasota,Sarasota
A-116184,28.467117,-82.432434,FL,Hernando,Brooksville
A-117971,26.007812,-80.34072900000002,FL,Broward,Pembroke Pines
A-118160,28.327951,-82.674133,FL,Pasco,Port Richey
A-117973,27.83917000000001,-82.722488,FL,Pinellas,Pinellas Park
A-3446065,25.809353,-80.259013,FL,Miami-Dade,Hialeah
A-118149,27.916245,-82.726105,FL,Pinellas,Clearwater
A-117248,28.32802,-81.333801,FL,Osceola,Kissimmee
A-119052,28.005646,-82.17585799999998,FL,Hillsborough,Plant City
A-3449979,26.08534,-80.36251999999998,FL,Broward,Fort Lauderdale
A-117296,25.760952,-80.40080999999998,FL,Miami-Dade,Miami
A-119759,27.915466,-82.34875500000003,FL,Hillsborough,Riverview
A-120544,27.298859000000004,-82.530525,FL,Sarasota,Sarasota
A-3453772,26.17252,-80.88024,FL,Collier,Ochopee
A-118326,26.093142,-80.22694399999997,FL,Broward,Fort Lauderdale
A-116242,28.475365000000004,-82.581497,FL,Hernando,Spring Hill
A-118538,25.911425,-80.348846,FL,Miami-Dade,Hialeah
A-118584,27.079453000000004,-82.330811,FL,Sarasota,Venice
A-116692,27.980179,-81.98380999999998,FL,Polk,Lakeland
A-116440,28.036619,-82.063751,FL,Hillsborough,Plant City
A-3453452,25.966891,-80.229347,FL,Miami-Dade,Miami
A-3445902,25.74292,-80.22985,FL,Miami-Dade,Miami
A-116729,28.53816,-81.35569,FL,Orange,Orlando
A-117545,25.785955,-80.189041,FL,Miami-Dade,Miami
A-3447528,28.6619,-81.22991,FL,Seminole,Oviedo
A-116359,28.610006,-81.40892,FL,Orange,Orlando
A-116802,26.327311,-80.170158,FL,Broward,Deerfield Beach
A-3446114,30.269997,-81.520889,FL,Duval,Jacksonville
A-117829,26.637384,-81.717377,FL,Lee,Lehigh Acres
A-3446420,30.4358,-81.58329,FL,Duval,Jacksonville
A-3446531,30.42662,-81.65625,FL,Duval,Jacksonville
A-119700,26.725389,-81.906631,FL,Lee,North Fort Myers
A-120071,25.946091,-80.162598,FL,Miami-Dade,Miami
A-119657,27.991341,-82.729683,FL,Pinellas,Clearwater
A-3452167,27.85578,-82.34688,FL,Hillsborough,Gibsonton
A-118525,25.988651,-80.142448,FL,Broward,Hallandale Beach
A-116794,28.494469,-81.396835,FL,Orange,Orlando
A-120604,26.233515,-81.78942099999998,FL,Collier,Naples
A-116837,28.328438,-82.187607,FL,Pasco,Dade City
A-119057,28.253349,-82.68441800000002,FL,Pasco,New Port Richey
A-3448195,27.046749,-82.259062,FL,Sarasota,North Port
A-118027,26.488789,-81.787338,FL,Lee,Fort Myers
A-119587,28.36202,-81.404442,FL,Orange,Orlando
A-119425,28.178682,-82.658112,FL,Pasco,New Port Richey
A-3455225,29.151803,-81.073453,FL,Volusia,Daytona Beach
A-116721,28.014116,-82.32916999999998,FL,Hillsborough,Tampa
A-116403,28.552397,-82.421211,FL,Hernando,Brooksville
A-3447950,28.535534,-81.285799,FL,Orange,Orlando
A-3451456,28.471326,-81.45864499999998,FL,Orange,Orlando
A-117535,27.277411,-82.505852,FL,Sarasota,Sarasota
A-116136,25.93162,-80.204338,FL,Miami-Dade,Miami
A-119001,26.920376,-80.146423,FL,Palm Beach,Palm Beach Gardens
A-3450161,25.8829,-80.24302,FL,Miami-Dade,Miami
A-117396,25.626991,-80.392105,FL,Miami-Dade,Miami
A-116547,26.63483,-81.803101,FL,Lee,Fort Myers
A-3450366,27.95139600000001,-82.52414,FL,Hillsborough,Tampa
A-3445508,28.177642,-80.649851,FL,Brevard,Melbourne
A-120679,28.332846000000004,-81.511833,FL,Osceola,Kissimmee
A-118577,28.035236,-80.62816600000002,FL,Brevard,Palm Bay
A-120078,28.360657,-82.649666,FL,Pasco,Hudson
A-3452557,26.68201,-81.90149,FL,Lee,North Fort Myers
A-3449714,28.548466,-81.4759,FL,Orange,Orlando
A-117381,27.38196,-82.554443,FL,Sarasota,Sarasota
A-3454435,28.53382,-82.501535,FL,Hernando,Brooksville
A-3452644,25.95712,-80.20579000000002,FL,Miami-Dade,Miami
A-116407,28.542988,-80.806282,FL,Brevard,Titusville
A-3449892,30.300658,-81.52298499999998,FL,Duval,Jacksonville
A-120139,27.839394,-82.75619499999998,FL,Pinellas,Seminole
A-120523,28.387423,-81.47760799999998,FL,Orange,Orlando
A-3446753,26.16219,-80.16230999999998,FL,Broward,Fort Lauderdale
A-3453900,29.40633,-81.15644,FL,Flagler,Flagler Beach
A-118092,27.894611,-82.77085100000002,FL,Pinellas,Largo
A-118993,28.570072,-81.422379,FL,Orange,Orlando
A-117520,26.705503000000004,-81.742317,FL,Lee,Fort Myers
A-3452030,28.77284,-81.29093,FL,Seminole,Sanford
A-119800,28.379339,-81.277153,FL,Orange,Orlando
A-118398,28.345098,-82.219551,FL,Pasco,Dade City
A-119144,26.286137,-80.201973,FL,Broward,Pompano Beach
A-3445928,27.99657,-82.573959,FL,Hillsborough,Tampa
A-116598,28.81715,-81.705696,FL,Lake,Tavares
A-118218,28.400377,-81.244652,FL,Orange,Orlando
A-117803,26.272982,-81.720642,FL,Collier,Naples
A-119727,27.377602000000003,-82.471222,FL,Sarasota,Sarasota
A-116806,28.539539,-81.244217,FL,Orange,Orlando
A-116627,28.658991,-81.476196,FL,Orange,Apopka
A-116413,27.806564,-82.66526800000003,FL,Pinellas,Saint Petersburg
A-3445892,26.14227,-80.21941,FL,Broward,Fort Lauderdale
A-116949,28.94313,-81.300934,FL,Volusia,Orange City
A-118812,28.078709000000003,-80.617401,FL,Brevard,Melbourne
A-120381,27.860085,-82.638779,FL,Pinellas,Saint Petersburg
A-3449331,30.7264,-86.55154399999998,FL,Okaloosa,Crestview
A-119613,26.605347,-81.748421,FL,Lee,Lehigh Acres
A-116245,27.874298,-82.69208499999998,FL,Pinellas,Clearwater
A-3447839,27.79072,-82.3572,FL,Hillsborough,Apollo Beach
A-119963,27.971195,-82.422371,FL,Hillsborough,Tampa
A-117681,27.463482,-81.47623399999998,FL,Highlands,Sebring
A-117437,28.186028000000004,-82.411392,FL,Pasco,Land O Lakes
A-116703,28.486908000000003,-81.417427,FL,Orange,Orlando
A-119232,28.404619,-82.617012,FL,Pasco,Hudson
A-118432,26.669813,-81.936813,FL,Lee,Cape Coral
A-120643,28.56461,-81.244827,FL,Orange,Orlando
A-119009,25.670784,-80.36254100000002,FL,Miami-Dade,Miami
A-119109,25.688553,-80.478302,FL,Miami-Dade,Miami
A-117024,28.555592,-82.47554000000002,FL,Hernando,Brooksville
A-119339,28.361538,-82.189125,FL,Pasco,Dade City
A-119423,27.462618,-82.626839,FL,Manatee,Bradenton
A-120083,28.584618,-82.50056500000002,FL,Hernando,Brooksville
A-3455166,27.620018,-82.539631,FL,Manatee,Palmetto
A-119384,25.986055,-80.303589,FL,Broward,Hollywood
A-119682,27.42425,-82.448334,FL,Manatee,Bradenton
A-118765,28.035021,-82.125793,FL,Hillsborough,Plant City
A-3453361,27.990577,-82.775429,FL,Pinellas,Clearwater
A-3448057,27.77003,-82.3351,FL,Hillsborough,Riverview
A-3455310,30.32064,-81.68583000000002,FL,Duval,Jacksonville
A-120254,28.074297,-82.70548199999998,FL,Pinellas,Palm Harbor
A-120553,27.434862,-82.575447,FL,Manatee,Bradenton
A-120290,27.995678,-82.357605,FL,Hillsborough,Tampa
A-3454017,26.78788,-80.09911,FL,Palm Beach,Palm Beach Gardens
A-118045,27.966038,-82.546761,FL,Hillsborough,Tampa
A-3445462,27.92279000000001,-82.36873,FL,Hillsborough,Tampa
A-116576,28.241657,-81.46243299999998,FL,Osceola,Kissimmee
A-3447536,28.114738,-82.6949,FL,Pinellas,Palm Harbor
A-119303,28.533579,-81.150276,FL,Orange,Orlando
A-118805,28.178087,-82.72874499999998,FL,Pasco,Holiday
A-118059,25.576962,-80.364479,FL,Miami-Dade,Miami
A-116899,27.374405,-80.40885899999998,FL,St. Lucie,Fort Pierce
A-116728,26.033426,-80.16439799999998,FL,Broward,Hollywood
A-3449195,30.33465,-81.67000999999998,FL,Duval,Jacksonville
A-116925,28.591108,-81.47608199999998,FL,Orange,Orlando
A-117012,27.880081,-82.787086,FL,Pinellas,Largo
A-117299,27.126516,-82.428459,FL,Sarasota,Nokomis
A-119974,28.378094,-81.56575,FL,Orange,Orlando
A-117965,28.255791,-81.486374,FL,Osceola,Kissimmee
A-117400,27.956247,-82.485008,FL,Hillsborough,Tampa
A-117069,27.839893,-82.807709,FL,Pinellas,Seminole
A-120589,27.585114,-82.516335,FL,Manatee,Palmetto
A-116857,26.376511,-80.083618,FL,Palm Beach,Boca Raton
A-3451241,28.308238,-82.32545999999998,FL,Pasco,San Antonio
A-118366,28.043648,-82.738426,FL,Pinellas,Clearwater
A-3452127,28.02535,-82.48425,FL,Hillsborough,Tampa
A-3454054,30.2873,-81.48417099999998,FL,Duval,Jacksonville
A-117350,27.90282100000001,-82.700546,FL,Pinellas,Clearwater
A-116966,28.05271500000001,-82.761986,FL,Pinellas,Palm Harbor
A-118934,25.702311,-80.334129,FL,Miami-Dade,Miami
A-3446273,26.28016,-80.12526,FL,Broward,Pompano Beach
A-120306,27.812391,-82.332748,FL,Hillsborough,Riverview
A-116903,28.421555,-81.373932,FL,Orange,Orlando
A-118975,26.587259000000003,-80.070984,FL,Palm Beach,Lake Worth
A-120369,26.560946,-81.873161,FL,Lee,Fort Myers
A-116558,28.344612,-82.699203,FL,Pasco,Hudson
A-118566,28.565462,-80.836105,FL,Brevard,Titusville
A-120303,28.37579,-82.20399499999998,FL,Pasco,Dade City
A-3448290,27.96191,-82.4533,FL,Hillsborough,Tampa
A-119047,28.175817,-82.749077,FL,Pasco,Holiday
A-116161,25.761715,-80.348267,FL,Miami-Dade,Miami
A-3447157,27.7124,-82.373755,FL,Hillsborough,Ruskin
A-3449299,30.19146,-81.7151,FL,Duval,Jacksonville
A-118938,28.61006,-81.285515,FL,Orange,Winter Park
A-116332,26.111271,-80.30143699999998,FL,Broward,Davie
A-119844,28.811859,-81.363045,FL,Seminole,Sanford
A-3449310,26.017377,-80.212905,FL,Broward,Hollywood
A-3451362,30.35247,-81.55481,FL,Duval,Jacksonville
A-116236,28.02325200000001,-82.708939,FL,Pinellas,Clearwater
A-117422,28.190878,-82.46236400000002,FL,Pasco,Lutz
A-120669,28.225307,-82.71028100000002,FL,Pasco,New Port Richey
A-118717,29.206415000000003,-82.184433,FL,Marion,Ocala
A-120159,28.213152,-82.732208,FL,Pasco,New Port Richey
A-3450134,26.12238,-80.13733,FL,Broward,Fort Lauderdale
A-3447710,25.92474,-80.29673000000003,FL,Miami-Dade,Hialeah
A-117746,26.411156,-81.811806,FL,Lee,Estero
A-116355,27.948193,-82.79995,FL,Pinellas,Clearwater
A-3450664,28.157902000000004,-81.63988,FL,Polk,Davenport
A-3451207,27.845793,-82.326872,FL,Hillsborough,Riverview
A-117434,27.942987,-82.401878,FL,Hillsborough,Tampa
A-118637,28.450726,-81.345718,FL,Orange,Orlando
A-117997,27.803902,-82.753799,FL,Pinellas,Saint Petersburg
A-120026,26.082226,-80.168686,FL,Broward,Fort Lauderdale
A-118138,27.319494,-82.447624,FL,Sarasota,Sarasota
A-120571,25.964537,-80.170113,FL,Miami-Dade,Miami
A-118822,27.87898400000001,-82.65892,FL,Pinellas,Saint Petersburg
A-117798,27.981512,-82.394478,FL,Hillsborough,Tampa
A-116228,27.367119,-82.530731,FL,Sarasota,Sarasota
A-118737,25.867538,-80.340538,FL,Miami-Dade,Hialeah
A-119961,28.408863,-81.208794,FL,Orange,Orlando
A-120005,25.630003,-80.340462,FL,Miami-Dade,Miami
A-3450213,28.44298,-81.38854,FL,Orange,Orlando
A-3455332,28.69197,-81.388628,FL,Seminole,Longwood
A-117639,26.63209,-80.06175999999998,FL,Palm Beach,Lake Worth
A-118243,28.19795,-82.330185,FL,Pasco,Wesley Chapel
A-3450557,27.838573,-82.683385,FL,Pinellas,Pinellas Park
A-3448278,25.81261,-80.20913399999998,FL,Miami-Dade,Miami
A-118446,27.514044,-82.563133,FL,Manatee,Palmetto
A-118109,28.244637,-81.656868,FL,Polk,Davenport
A-3448232,25.81033,-80.14402,FL,Miami-Dade,Miami Beach
A-118447,28.407413,-81.40464,FL,Orange,Orlando
A-116861,27.937729,-82.306206,FL,Hillsborough,Brandon
A-3451291,28.5684,-81.27787,FL,Orange,Orlando
A-117989,27.952394,-82.368973,FL,Hillsborough,Tampa
A-119650,26.682318,-81.880768,FL,Lee,North Fort Myers
A-116375,28.551289,-82.392174,FL,Hernando,Brooksville
A-116717,25.796963,-80.321442,FL,Miami-Dade,Miami
A-118455,26.577824,-81.662766,FL,Lee,Lehigh Acres
A-3453283,25.582451,-80.39130300000002,FL,Miami-Dade,Miami
A-3451985,28.122311,-82.502339,FL,Hillsborough,Lutz
A-116319,28.153955,-81.44001,FL,Osceola,Kissimmee
A-119026,28.308189,-82.666214,FL,Pasco,New Port Richey
A-116533,28.317238,-81.469429,FL,Osceola,Kissimmee
A-116682,26.546566,-81.84677099999998,FL,Lee,Fort Myers
A-3449287,27.935631,-82.56636,FL,Hillsborough,Tampa
A-118659,25.854799,-80.217537,FL,Miami-Dade,Miami
A-118029,28.136803000000004,-82.75703399999998,FL,Pinellas,Tarpon Springs
A-118069,25.870073,-80.38784,FL,Miami-Dade,Miami
A-3454662,28.51286,-81.37631,FL,Orange,Orlando
A-3451035,28.5795,-81.55733000000002,FL,Orange,Ocoee
A-120435,27.351988,-82.463974,FL,Sarasota,Sarasota
A-119671,28.98464,-81.276749,FL,Volusia,Deland
A-3445926,26.12631,-80.36402,FL,Broward,Fort Lauderdale
A-116517,28.666309,-80.869629,FL,Brevard,Mims
A-3455402,26.69671,-80.06999,FL,Palm Beach,West Palm Beach
A-3449172,28.42648,-81.4181,FL,Orange,Orlando
A-119095,28.480656,-81.30394,FL,Orange,Orlando
A-120122,26.12089,-80.219604,FL,Broward,Plantation
A-118785,28.419216,-81.46003,FL,Orange,Orlando
A-118575,28.238007,-82.362442,FL,Pasco,Wesley Chapel
A-117158,28.340858,-81.38041700000002,FL,Osceola,Kissimmee
A-120527,28.318953000000004,-81.408897,FL,Osceola,Kissimmee
A-118761,28.517015,-82.509865,FL,Hernando,Spring Hill
A-3449880,26.235640000000004,-80.13663000000003,FL,Broward,Pompano Beach
A-116610,27.86441,-82.385147,FL,Hillsborough,Riverview
A-117512,28.199961,-82.646912,FL,Pasco,New Port Richey
A-3446802,30.17921,-81.62425,FL,Duval,Jacksonville
A-3448080,28.430051,-81.47511,FL,Orange,Orlando
A-119843,28.392399,-81.36756899999997,FL,Orange,Orlando
A-3445675,28.57037,-81.36445,FL,Orange,Orlando
A-120356,28.457657,-82.492416,FL,Hernando,Spring Hill
A-120021,28.479111,-81.511894,FL,Orange,Orlando
A-117692,27.26906,-82.441162,FL,Sarasota,Sarasota
A-119176,27.960796,-82.773178,FL,Pinellas,Clearwater
A-120462,28.924728,-81.96505,FL,Lake,Lady Lake
A-120090,25.792032,-80.141258,FL,Miami-Dade,Miami Beach
A-3449936,28.52306,-82.23824,FL,Hernando,Brooksville
A-116958,27.494097,-82.490852,FL,Manatee,Bradenton
A-3455388,28.45055,-81.408059,FL,Orange,Orlando
A-116975,27.584515000000003,-82.615646,FL,Manatee,Palmetto
A-119028,28.019466,-82.72895799999998,FL,Pinellas,Clearwater
A-118502,28.44994,-81.445885,FL,Orange,Orlando
A-3453508,25.666868,-80.388832,FL,Miami-Dade,Miami
A-116594,27.322844,-82.49748199999998,FL,Sarasota,Sarasota
A-120675,28.220617,-80.676163,FL,Brevard,Melbourne
A-119112,27.268606,-82.464485,FL,Sarasota,Sarasota
A-118225,28.543041,-82.367729,FL,Hernando,Brooksville
A-3449666,26.4482,-81.81761,FL,Lee,Estero
A-119158,27.77236,-82.730537,FL,Pinellas,Saint Petersburg
A-119259,28.007118,-82.50500500000003,FL,Hillsborough,Tampa
A-117323,28.356548,-81.43645500000002,FL,Orange,Orlando
A-116227,27.956839,-82.746086,FL,Pinellas,Clearwater
A-116310,27.821007,-82.720413,FL,Pinellas,Saint Petersburg
A-118862,27.581776,-82.578934,FL,Manatee,Palmetto
A-3447009,26.12162,-80.17803,FL,Broward,Fort Lauderdale
A-118226,28.310177000000003,-82.187675,FL,Pasco,Dade City
A-120538,28.067471,-82.722389,FL,Pinellas,Palm Harbor
A-117937,28.565279,-81.147476,FL,Orange,Orlando
A-119076,28.185757,-82.362709,FL,Pasco,Wesley Chapel
A-119437,28.07263,-81.986908,FL,Polk,Lakeland
A-118800,27.397711,-82.56353,FL,Manatee,Sarasota
A-117292,29.550253,-81.236641,FL,Flagler,Palm Coast
A-117237,28.181948,-81.74382800000002,FL,Polk,Polk City
A-117070,28.02798300000001,-81.907516,FL,Polk,Lakeland
A-3451990,28.514136,-81.39699999999998,FL,Orange,Orlando
A-116959,27.327543,-82.463875,FL,Sarasota,Sarasota
A-3447526,28.387498,-80.703017,FL,Brevard,Merritt Island
A-3450832,28.49398,-81.45909,FL,Orange,Orlando
A-3446692,28.214156,-82.3713,FL,Pasco,Wesley Chapel
A-3451942,26.208593,-80.197046,FL,Broward,Pompano Beach
A-3452744,26.19981,-80.1478,FL,Broward,Fort Lauderdale
A-117239,28.856358,-82.089874,FL,Sumter,Wildwood
A-116655,25.484587,-80.461014,FL,Miami-Dade,Homestead
A-116807,26.231218,-80.164551,FL,Broward,Pompano Beach
A-118166,27.343105,-82.542679,FL,Sarasota,Sarasota
A-119898,28.3265,-81.551422,FL,Osceola,Kissimmee
A-119400,28.363789,-81.244446,FL,Orange,Orlando
A-118187,28.04896500000001,-82.700386,FL,Pinellas,Oldsmar
A-119654,28.22294,-82.236176,FL,Pasco,Zephyrhills
