ID,Start_Lat,Start_Lng,State,County,City
A-228641,39.419975,-76.640007,MD,Baltimore County,Lutherville Timonium
A-228649,39.381805,-77.40972099999998,MD,Frederick,Frederick
A-228650,39.286144,-77.27179,MD,Montgomery,Clarksburg
A-228652,39.197132,-76.76634200000002,MD,Howard,Elkridge
A-228659,38.919521,-76.933144,MD,Prince George's,Hyattsville
A-228667,39.632416,-76.67182199999998,MD,Baltimore County,Parkton
A-228670,39.268738,-76.55931899999999,MD,Baltimore City,Baltimore
A-228682,39.522217,-76.171112,MD,Harford,Aberdeen
A-228685,39.19828,-77.24501,MD,Montgomery,Germantown
A-228686,39.05135300000001,-77.074844,MD,Montgomery,Silver Spring
A-228688,39.099648,-76.890022,MD,Prince George's,Laurel
A-228690,39.524509,-76.28652199999998,MD,Harford,Bel Air
A-228697,39.416164,-76.78302,MD,Baltimore County,Owings Mills
A-228725,39.047318,-76.91658000000002,MD,Prince Georges,Beltsville
A-228728,39.349953,-76.496826,MD,Baltimore County,Baltimore
A-228731,39.286179,-76.738632,MD,Baltimore County,Catonsville
A-228741,38.9305,-76.89765200000002,MD,Prince George's,Hyattsville
A-228775,39.026741,-76.855232,MD,Prince George's,Beltsville
A-228781,39.05423,-76.629349,MD,Anne Arundel,Crownsville
A-228825,39.096626,-76.80127,MD,Anne Arundel,Laurel
A-228833,39.007114,-76.486053,MD,Anne Arundel,Annapolis
A-228834,39.323437,-77.357155,MD,Frederick,Frederick
A-228852,39.588997,-76.995193,MD,Carroll,Westminster
A-228864,39.202053,-76.859383,MD,Howard,Columbia
A-228866,39.311146,-76.61496,MD,Baltimore City,Baltimore
A-228869,38.712349,-76.85390500000003,MD,Prince George's,Brandywine
A-228870,38.954979,-76.717438,MD,Prince George's,Bowie
A-228876,38.960732,-76.655052,MD,Anne Arundel,Davidsonville
A-228880,39.648983,-78.76140600000002,MD,Allegany,Cumberland
A-228884,39.019264,-76.976738,MD,Montgomery,Silver Spring
A-228890,39.327988,-76.583679,MD,Baltimore City,Baltimore
A-228895,39.139431,-76.756248,MD,Anne Arundel,Jessup
A-228899,38.819439,-76.919365,MD,Prince George's,Temple Hills
A-228901,39.075733,-77.00194499999998,MD,Montgomery,Silver Spring
A-228912,39.36210300000001,-76.634697,MD,Baltimore City,Baltimore
A-228917,38.986404,-76.577354,MD,Anne Arundel,Annapolis
A-228925,39.382172,-76.520782,MD,Baltimore County,Parkville
A-228937,38.851227,-76.95989200000002,MD,Prince George's,Temple Hills
A-228954,39.129364,-76.862099,MD,Howard,Laurel
A-228955,39.349018,-76.67588,MD,Baltimore City,Baltimore
A-228960,39.094639,-76.85372199999998,MD,Prince Georges,Laurel
A-228967,39.395973,-76.68821700000002,MD,Baltimore County,Pikesville
A-228973,39.317402,-76.534203,MD,Baltimore City,Rosedale
A-228976,39.55572100000001,-76.267624,MD,Harford,Churchville
A-228979,38.974915,-77.178658,MD,Montgomery,Bethesda
A-228980,39.026157,-77.02029399999998,MD,Montgomery,Silver Spring
A-229024,39.509689,-77.559364,MD,Frederick,Myersville
A-229027,39.084377,-77.172531,MD,Montgomery,Rockville
A-229043,39.367039,-77.63668100000002,MD,Frederick,Knoxville
A-229064,38.972515,-76.524651,MD,Anne Arundel,Annapolis
A-229068,38.772964,-76.99593399999998,MD,Prince George's,Fort Washington
A-229093,39.601288,-76.477478,MD,Harford,Jarrettsville
A-229103,39.600182,-77.682709,MD,Washington,Hagerstown
A-229113,39.157845,-76.82494399999999,MD,Howard,Jessup
A-229141,39.488277,-76.318382,MD,Harford,Abingdon
A-229142,39.019833,-77.10543100000002,MD,Montgomery,Bethesda
A-229150,39.421722,-77.485161,MD,Frederick,Frederick
A-229151,39.650333,-77.72538,MD,Washington,Hagerstown
A-229154,38.82703,-76.87846400000002,MD,Prince George's,Suitland
A-229157,39.277725,-77.32356999999998,MD,Montgomery,Clarksburg
A-229160,39.018211,-76.926636,MD,Prince George's,College Park
A-229167,39.241028,-76.592911,MD,Baltimore City,Curtis Bay
A-229205,39.2192,-76.65853100000002,MD,Anne Arundel,Linthicum Heights
A-229243,39.29385,-76.679794,MD,Baltimore City,Baltimore
A-229253,39.37294,-76.746765,MD,Baltimore County,Pikesville
A-229266,39.062187,-77.284134,MD,Montgomery,Potomac
A-229286,39.379276,-76.44828000000003,MD,Baltimore County,Nottingham
A-229295,38.763252,-76.80351999999998,MD,Prince Georges,Upper Marlboro
A-229300,39.591885,-76.67321,MD,Baltimore County,Parkton
A-229315,39.152046,-76.645584,MD,Anne Arundel,Severn
A-229330,39.456989,-76.310097,MD,Harford,Abingdon
A-229351,39.248997,-76.639748,MD,Baltimore City,Baltimore
A-229366,38.991417,-76.886101,MD,Prince George's,Lanham
A-229368,39.593117,-76.066345,MD,Cecil,Perryville
A-229412,39.346298,-77.270546,MD,Frederick,Monrovia
A-229498,39.514046,-77.319283,MD,Frederick,Walkersville
A-229507,39.385239,-77.259415,MD,Frederick,New Market
A-229532,38.90699,-76.84961700000002,MD,Prince George's,Upper Marlboro
A-229535,39.27734,-76.820503,MD,Howard,Ellicott City
A-229544,39.053982,-77.138077,MD,Montgomery,Rockville
A-229555,39.162735,-77.283028,MD,Montgomery,Germantown
A-229556,38.987232,-77.103325,MD,Montgomery,Bethesda
A-229558,39.235683,-76.70948800000002,MD,Baltimore County,Halethorpe
A-229563,38.972149,-76.915253,MD,Prince George's,Riverdale
A-229588,39.086357,-76.623573,MD,Anne Arundel,Millersville
A-229653,39.18679,-76.632439,MD,Anne Arundel,Glen Burnie
A-229663,39.229057,-76.973244,MD,Howard,Clarksville
A-229677,39.26409500000001,-76.98484,MD,Howard,Ellicott City
A-229685,39.406071,-77.4328,MD,Frederick,Frederick
A-229690,39.568611,-77.76550300000002,MD,Washington,Hagerstown
A-229701,39.590641,-75.86526500000002,MD,Cecil,Elkton
A-229709,39.148895,-77.216576,MD,Montgomery,Gaithersburg
A-229711,38.664818,-77.017517,MD,Prince George's,Accokeek
A-229724,39.299252,-76.57225799999998,MD,Baltimore City,Baltimore
A-229728,39.317799,-77.198189,MD,Montgomery,Damascus
A-229750,39.224586,-77.426384,MD,Montgomery,Dickerson
A-229753,39.169014,-77.15430500000002,MD,Montgomery,Gaithersburg
A-229756,39.323574,-76.477898,MD,Baltimore County,Essex
A-229771,38.962948,-77.135796,MD,Montgomery,Bethesda
A-229787,39.170197,-76.730721,MD,Anne Arundel,Hanover
A-229811,39.05838,-76.696854,MD,Anne Arundel,Gambrills
A-229846,39.118965,-77.19619,MD,Montgomery,Gaithersburg
A-229863,39.358086,-76.589401,MD,Baltimore City,Baltimore
A-229916,39.25251,-77.302162,MD,Montgomery,Clarksburg
A-229963,39.01685300000001,-76.409798,MD,Anne Arundel,Annapolis
A-230014,39.395374,-76.917366,MD,Carroll,Sykesville
A-230023,39.276611,-76.477036,MD,Baltimore County,Dundalk
A-230047,39.23875,-77.182098,MD,Montgomery,Gaithersburg
A-230050,39.056347,-76.839485,MD,Prince George's,Laurel
A-230061,39.134449,-76.597115,MD,Anne Arundel,Pasadena
A-230089,39.359455,-77.16626,MD,Carroll,Mount Airy
A-230107,38.945377,-76.858414,MD,Prince George's,Hyattsville
A-230117,39.190704,-77.192154,MD,Montgomery,Montgomery Village
A-230120,39.188686,-76.683296,MD,Anne Arundel,Baltimore
A-230121,39.44210800000001,-76.348763,MD,Harford,Joppa
A-230222,39.120449,-77.034012,MD,Montgomery,Silver Spring
A-230226,39.111229,-76.555878,MD,Anne Arundel,Pasadena
A-230232,38.868965,-76.8442,MD,Prince George's,Upper Marlboro
A-230246,39.60553,-75.789474,MD,Cecil,Elkton
A-230252,39.437885,-76.73309300000003,MD,Baltimore,Owings Mills
A-230255,39.505917,-76.488785,MD,Baltimore,Baldwin
A-230376,39.057098,-76.96770500000002,MD,Montgomery,Silver Spring
A-230385,39.286903,-77.199005,MD,Montgomery,Damascus
A-230410,39.256107,-77.455391,MD,Montgomery,Dickerson
A-230423,39.271645,-77.495468,MD,Frederick,Tuscarora
A-230448,39.492081,-76.39409599999998,MD,Harford,Fallston
A-230449,38.772636,-76.06134,MD,Talbot,Easton
A-230452,38.985977,-76.956177,MD,Prince George's,Hyattsville
A-230503,39.012356,-77.15010799999997,MD,Montgomery,Bethesda
A-230507,39.149342,-77.01236,MD,Montgomery,Ashton
A-230556,38.986816,-76.155067,MD,Queen Anne's,Queenstown
A-230576,38.750412,-76.879417,MD,Prince George's,Clinton
A-230669,39.620251,-77.426407,MD,Frederick,Thurmont
A-230670,38.910645,-76.541687,MD,Anne Arundel,Edgewater
A-230680,39.386868,-76.822594,MD,Baltimore,Randallstown
A-230682,39.473846,-76.625511,MD,Baltimore,Cockeysville
A-230698,38.945412,-76.770042,MD,Prince George's,Bowie
A-230704,38.808456,-76.97058100000002,MD,Prince George's,Fort Washington
A-230715,38.853355,-76.90735600000002,MD,Prince Georges,District Heights
A-230916,39.484238,-76.25153399999998,MD,Harford,Bel Air
A-230939,39.405193,-77.289337,MD,Frederick,New Market
A-230970,39.544189,-76.83766899999998,MD,Baltimore County,Upperco
A-230976,39.48674000000001,-77.34026300000002,MD,Frederick,Walkersville
A-231052,39.573288,-76.133087,MD,Harford,Havre de Grace
A-231092,39.491409,-76.885498,MD,Carroll,Finksburg
A-231119,39.302315,-76.95295,MD,Howard,West Friendship
A-231122,39.283463,-76.626129,MD,Baltimore City,Baltimore
A-231195,39.393513,-77.326492,MD,Frederick,Frederick
A-231217,39.644482,-76.874969,MD,Carroll,Hampstead
A-231257,39.66744600000001,-76.17004399999998,MD,Cecil,Conowingo
A-231267,39.392986,-76.583862,MD,Baltimore County,Towson
A-231336,39.048737,-76.520004,MD,Anne Arundel,Arnold
A-231340,39.495785,-76.650452,MD,Baltimore County,Cockeysville
A-231411,38.674713,-76.876099,MD,Prince George's,Brandywine
A-231418,39.072128,-76.541046,MD,Anne Arundel,Severna Park
A-231452,38.696198,-76.06094399999998,MD,Talbot,Trappe
A-231485,39.332455,-77.432281,MD,Frederick,Frederick
A-231499,39.222813,-77.28005999999998,MD,Montgomery,Clarksburg
A-231527,39.628078,-77.774971,MD,Washington,Hagerstown
A-231597,39.58593,-77.639648,MD,Washington,Hagerstown
A-231607,39.6409,-75.802238,MD,Cecil,Elkton
A-231622,39.19286,-77.026535,MD,Montgomery,Brookeville
A-231654,38.993397,-77.02668,MD,Montgomery,Silver Spring
A-231657,39.4174,-76.307716,MD,Harford,Edgewood
A-231699,39.440968,-76.82270799999998,MD,Baltimore County,Reisterstown
A-231704,39.487949,-76.567711,MD,Baltimore County,Phoenix
A-231723,39.027023,-76.449432,MD,Anne Arundel,Annapolis
A-231769,39.448524,-77.38651999999998,MD,Frederick,Frederick
A-231799,39.376869,-77.475815,MD,Frederick,Frederick
A-231895,38.792953,-76.572243,MD,Anne Arundel,Deale
A-231912,39.21085,-76.80004100000002,MD,Howard,Columbia
A-231914,39.351151,-76.534767,MD,Baltimore City,Baltimore
A-231915,39.493675,-76.184578,MD,Harford,Aberdeen
A-231980,39.338676,-76.71736899999998,MD,Baltimore,Gwynn Oak
A-232013,38.964756,-76.334885,MD,Queen Annes,Stevensville
A-232177,39.473995,-76.839546,MD,Baltimore County,Reisterstown
A-232200,39.279427,-76.860252,MD,Howard,Ellicott City
A-232227,39.192776,-77.306473,MD,Montgomery,Boyds
A-232246,39.245514,-76.45613900000002,MD,Baltimore,Sparrows Point
A-232349,39.11734000000001,-76.634117,MD,Anne Arundel,Millersville
A-232352,39.098274,-75.959717,MD,Queen Anne's,Church Hill
A-232406,39.403919,-77.377975,MD,Frederick,Frederick
A-232412,39.719227,-76.034477,MD,Cecil,Rising Sun
A-232416,39.097858,-77.10481999999998,MD,Montgomery,Rockville
A-232468,39.55793,-76.10239399999998,MD,Harford,Havre De Grace
A-232554,39.648983,-77.568344,MD,Washington,Smithsburg
A-232659,39.177238,-77.118126,MD,Montgomery,Derwood
A-232776,39.611473,-75.92227199999998,MD,Cecil,Elkton
A-232777,38.652534,-76.972038,MD,Charles,Waldorf
A-232903,39.297432,-76.50296800000002,MD,Baltimore County,Baltimore
A-232924,39.121059,-77.158524,MD,Montgomery,Derwood
A-233042,38.81567,-76.633072,MD,Anne Arundel,Lothian
A-233091,38.755566,-75.79003900000002,MD,Caroline,Federalsburg
A-233102,38.865578,-76.619835,MD,Anne Arundel,Harwood
A-233109,38.805485,-75.786766,MD,Caroline,Federalsburg
A-233139,38.956375,-76.82285300000002,MD,Prince George's,Lanham
A-233160,39.673656,-76.023087,MD,Cecil,Rising Sun
A-233174,39.250969,-76.678291,MD,Baltimore County,Halethorpe
A-233231,38.927975,-76.61733199999998,MD,Anne Arundel,Davidsonville
A-233233,39.703693,-75.995483,MD,Cecil,Rising Sun
A-233259,39.000256,-76.07328000000003,MD,Queen Annes,Centreville
A-233265,39.651474,-77.92308,MD,Washington,Clear Spring
A-233289,39.628014,-78.016609,MD,Washington,Big Pool
A-233314,39.334415,-76.644165,MD,Baltimore City,Baltimore
A-233334,39.43531,-76.431206,MD,Baltimore,Kingsville
A-233412,39.632664,-77.3218,MD,Frederick,Rocky Ridge
A-233496,38.879414,-76.508911,MD,Anne Arundel,Edgewater
A-233510,39.678185,-77.225235,MD,Carroll,Taneytown
A-233513,39.509792,-77.12782299999998,MD,Carroll,New Windsor
A-233575,39.337856,-76.953011,MD,Howard,Sykesville
A-233597,39.274712,-77.541855,MD,Frederick,Jefferson
A-233600,38.950195,-77.101578,MD,Montgomery,Bethesda
A-233614,39.69442700000001,-78.649963,MD,Allegany,Cumberland
A-233618,39.326466,-77.016228,MD,Howard,Woodbine
A-233632,39.302254,-76.90978199999998,MD,Howard,Marriottsville
A-3445365,38.99074,-76.37165999999998,MD,Queen Anne's,District 4 Kent Island
A-3445377,38.21339,-75.69983,MD,Somerset,Princess Anne
A-3446266,38.516075,-76.680223,MD,Charles,Hughesville
A-3446522,39.69718,-76.90399000000002,MD,Carroll,Manchester
A-3446633,39.60169000000001,-76.77391,MD,Baltimore,Upperco
A-3447413,39.008818,-77.06684,MD,Montgomery,Chevy Chase
A-3447609,38.63222,-75.7711,MD,Caroline,Federalsburg
A-3447612,38.66319,-75.75575,MD,Dorchester,Federalsburg
A-3447645,39.70621,-78.57544,MD,Allegany,Flintstone
A-3447803,38.7932,-77.0233,MD,Prince George's,Oxon Hill
A-3448466,39.134309,-77.122939,MD,Montgomery,Derwood
A-3449266,38.89991,-76.79410899999998,MD,Prince Georges,Bowie
A-3449750,39.17675,-76.87810999999998,MD,Howard,Columbia
A-3449763,39.305326,-77.543591,MD,Frederick,Jefferson
A-3450440,38.373896,-76.44461899999997,MD,Calvert,Lusby
A-3450552,39.67264,-78.7315,MD,Allegany,Cumberland
A-3451302,38.38682,-75.3541,MD,Wicomico,Willards
A-3451460,38.372224,-76.95934399999999,MD,Charles,Newburg
A-3451539,38.986491,-76.71470699999998,MD,Prince George's,Bowie
A-3451584,39.14774,-76.69242,MD,Anne Arundel,Severn
A-3451611,39.691606,-76.643511,MD,Baltimore County,Parkton
A-3452039,39.62959,-77.10733,MD,Carroll,Westminster
A-3452193,38.480524,-76.775522,MD,Charles,Charlotte Hall
A-3452247,39.64045,-78.80126,MD,Allegany,Cumberland
A-3452334,39.623401,-76.20068499999998,MD,Harford,Darlington
A-3452817,39.22645,-76.51604,MD,Baltimore County,Dundalk
A-3453098,39.3996,-76.40205,MD,Baltimore,White Marsh
A-3453600,39.56225300000001,-77.616562,MD,Washington,Boonsboro
A-3454111,39.063175,-76.88419499999998,MD,Prince George's,Beltsville
A-3454206,39.559936,-77.030249,MD,Carroll,Westminster
A-3454667,38.472397,-75.796909,MD,Wicomico,Mardela Springs
