ID,Start_Lat,Start_Lng,State,County,City
A-231169,39.319805,-77.71257,VA,Loudoun,Purcellville
A-229077,38.903252,-77.493279,VA,Loudoun,Chantilly
A-229575,38.96825,-77.735023,VA,Loudoun,Middleburg
A-231820,39.141582,-77.54600500000002,VA,Loudoun,Leesburg
A-231802,39.163834,-77.799522,VA,Loudoun,Round Hill
