ID,Start_Lat,Start_Lng,State,County,City
A-3524858,42.97521,-117.05312,OR,Malheur,Jordan Valley
A-3525836,45.902489,-123.756989,OR,Clatsop,Seaside
A-3527843,42.0738,-122.60562,OR,Jackson,Ashland
A-3528242,45.823486,-119.562475,OR,Morrow,Irrigon
A-3528799,44.2692,-121.21277,OR,Deschutes,Redmond
A-3528216,44.80393,-117.81303,OR,Baker,Baker City
