ID,Start_Lat,Start_Lng,State,County,City
A-228637,38.670456,-77.253723,VA,Prince William,Woodbridge
A-228640,38.81189000000001,-77.186409,VA,Fairfax County,Springfield
A-228644,38.84647800000001,-77.43175500000002,VA,Fairfax County,Centreville
A-228646,38.868336,-77.311134,VA,Fairfax County,Fairfax
A-228662,38.799927,-77.599609,VA,Prince William,Gainesville
A-228669,38.862434,-77.069016,VA,Arlington,Arlington
A-228716,39.17767,-77.661041,VA,Loudoun,Hamilton
A-228737,38.931313,-77.21108199999998,VA,Fairfax County,Mc Lean
A-228759,39.11335800000001,-77.56192800000002,VA,Loudoun,Leesburg
A-228770,38.91592,-77.472588,VA,Loudoun,Chantilly
A-228779,39.04467,-77.519981,VA,Loudoun,Ashburn
A-228844,38.708416,-77.160637,VA,Fairfax,Fort Belvoir
A-228851,39.009892,-78.297714,VA,Frederick,Middletown
A-228965,39.013199,-77.371162,VA,Fairfax,Herndon
A-229034,38.915363,-78.099228,VA,Warren,Linden
A-229168,38.946728,-77.312119,VA,Fairfax,Vienna
A-229169,38.765934,-77.053528,VA,Fairfax County,Alexandria
A-229420,39.216297,-77.534485,VA,Loudoun,Leesburg
A-229552,38.755573,-77.276955,VA,Fairfax County,Burke
A-229575,38.96825,-77.735023,VA,Loudoun,Middleburg
A-229632,38.858147,-77.844193,VA,Fauquier,Marshall
A-229684,39.134907,-77.76609,VA,Loudoun,Round Hill
A-229919,38.943741,-78.511475,VA,Shenandoah,Maurertown
A-230188,39.059563,-78.130989,VA,Clarke,White Post
A-230189,39.162163,-78.157753,VA,Frederick,Winchester
A-230420,38.762383,-78.634209,VA,Shenandoah,Mount Jackson
A-230430,39.290592,-78.08500699999998,VA,Frederick,Clear Brook
A-230524,38.863098,-78.72757,VA,Shenandoah,Edinburg
A-230831,39.247807,-78.20500200000002,VA,Frederick,Winchester
A-231053,38.850502,-78.28607199999998,VA,Warren,Bentonville
A-231073,38.972992,-77.54126,VA,Loudoun,Ashburn
A-231169,39.319805,-77.71257,VA,Loudoun,Purcellville
A-231545,38.830109,-78.576691,VA,Shenandoah,Edinburg
A-231637,39.265205,-78.335785,VA,Frederick,Gore
A-232463,39.146549,-77.959473,VA,Clarke,Berryville
A-232812,38.69455,-77.44207,VA,Prince William,Manassas
A-3445356,38.52464000000001,-77.36779,VA,Prince William,Quantico
A-3445357,37.38017,-77.4116,VA,Chesterfield,Richmond
A-3445389,37.011893,-77.27478599999998,VA,Prince George,Disputanta
A-3445412,37.01152,-76.32304,VA,Hampton,Hampton
A-3445425,38.277878,-77.21115,VA,King George,King George
A-3445426,36.901834,-76.423142,VA,Suffolk,Suffolk
A-3445445,37.6533,-77.43072,VA,Henrico,Richmond
A-3445454,37.58146,-77.46936,VA,Richmond City,Richmond
A-3445501,36.93844,-81.00115,VA,Wythe,Wytheville
A-3445521,36.78588,-76.41398000000002,VA,Chesapeake,Chesapeake
A-3445522,37.17202,-76.55045,VA,Newport News,Newport News
A-3445534,38.418036,-77.425329,VA,Stafford,Stafford
A-3445540,37.917301,-76.44584499999998,VA,Northumberland,Heathsville
A-3445561,38.175522,-78.407423,VA,Albemarle,Charlottesville
A-3445808,37.547719,-79.666411,VA,Botetourt,Buchanan
A-3445981,37.787799,-77.89592900000002,VA,Louisa,Gum Spring
A-3446067,36.87722,-76.199715,VA,Norfolk,Norfolk
A-3446183,36.948822,-79.95817,VA,Franklin,Ferrum
A-3446184,36.698911,-81.98425300000002,VA,Washington,Abingdon
A-3446354,37.88411,-79.28823,VA,Rockbridge,Fairfield
A-3446371,37.517216,-76.970095,VA,New Kent,New Kent
A-3446380,36.95108,-80.87831,VA,Wythe,Max Meadows
A-3446392,37.01291,-76.45640999999998,VA,Newport News,Newport News
A-3446421,37.554144,-76.340926,VA,Middlesex,Deltaville
A-3446431,37.23972,-76.6331,VA,York,Williamsburg
A-3446461,36.86271,-81.43703000000002,VA,Smyth,Atkins
A-3446509,36.75803,-76.2775,VA,Chesapeake,Chesapeake
A-3446565,38.45397,-78.93163,VA,Harrisonburg City,Rockingham
A-3446601,37.612323,-79.083294,VA,Amherst,Amherst
A-3446925,37.53165300000001,-77.36254699999998,VA,Henrico,Henrico
A-3446927,36.83482,-76.28886999999997,VA,Norfolk,Norfolk
A-3447042,37.08254,-80.65307,VA,Pulaski,Dublin
A-3447067,37.759879,-75.61762,VA,Accomack,Parksley
A-3447077,37.280237,-79.168091,VA,Campbell,Rustburg
A-3447095,37.47619,-77.51414,VA,Chesterfield,Richmond
A-3447145,36.791484,-76.66901999999997,VA,Suffolk City,Suffolk
A-3447244,38.823833,-77.707669,VA,Prince William,Broad Run
A-3447248,36.902672,-79.389942,VA,Pittsylvania,Chatham
A-3447249,37.71089,-77.78566,VA,Goochland,Oilville
A-3447250,37.822016,-79.74531800000003,VA,Alleghany,Clifton Forge
A-3447270,37.185397,-80.285748,VA,Montgomery,Shawsville
A-3447339,37.756263,-77.143074,VA,King William,Aylett
A-3447355,37.09497800000001,-77.358788,VA,Prince George,Petersburg
A-3447374,36.966151,-76.979015,VA,Sussex,Wakefield
A-3447408,37.83734000000001,-77.9746,VA,Goochland,Gum Spring
A-3447470,36.601556,-79.861846,VA,Henry,Ridgeway
A-3447519,37.67297,-77.57513,VA,Henrico,Glen Allen
A-3447521,37.52244,-77.82311999999997,VA,Powhatan,Powhatan
A-3447524,38.03493,-78.60693,VA,Albemarle,Charlottesville
A-3447578,38.04586,-78.72927,VA,Albemarle,Crozet
A-3447582,37.015536,-79.828047,VA,Franklin,Rocky Mount
A-3447605,38.32293,-77.70914,VA,Spotsylvania,Spotsylvania
A-3447871,38.258257,-78.001751,VA,Culpeper,Rapidan
A-3447886,36.647006,-78.501991,VA,Mecklenburg,Clarksville
A-3447897,36.69049,-76.74758,VA,Suffolk City,Suffolk
A-3447900,38.016526,-78.425925,VA,Albemarle,Charlottesville
A-3447905,37.262345,-77.398432,VA,Colonial Heights,Colonial Heights
A-3447942,37.507958,-79.877511,VA,Botetourt,Fincastle
A-3447964,37.745352,-79.371416,VA,Buena Vista,Buena Vista
A-3448035,37.48687,-77.66901999999997,VA,Chesterfield,Midlothian
A-3448220,38.29176,-77.50671,VA,Fredericksburg,Fredericksburg
A-3448277,37.33928,-80.00220999999998,VA,Roanoke County,Roanoke
A-3448296,38.629824,-77.374037,VA,Prince William,Woodbridge
A-3448340,36.580641,-79.262394,VA,Pittsylvania,Ringgold
A-3448553,36.84657,-75.99821999999998,VA,Virginia Beach,Virginia Beach
A-3448780,37.96318400000001,-77.433863,VA,Caroline,Ruther Glen
A-3448787,37.14507800000001,-77.773732,VA,Dinwiddie,Ford
A-3448812,37.89714,-76.8715,VA,Essex,Tappahannock
A-3449062,37.269167,-76.495064,VA,Gloucester,Hayes
A-3449093,37.39445,-77.51978000000003,VA,Chesterfield,Richmond
A-3449353,37.35061,-76.7294,VA,York,Williamsburg
A-3449439,37.544034,-76.704196,VA,King and Queen,Shacklefords
A-3449557,37.51754,-77.25697,VA,Henrico,Sandston
A-3449640,36.601936,-79.41420500000002,VA,Danville City,Danville
A-3449658,37.126554,-82.621181,VA,Wise,Pound
A-3449783,37.194262,-77.469838,VA,Petersburg City,North Dinwiddie
A-3449863,38.449494,-78.09226899999999,VA,Culpeper,Culpeper
A-3450045,38.49219,-77.93539,VA,Culpeper,Culpeper
A-3450076,36.89167,-77.80481,VA,Brunswick,Dolphin
A-3450516,38.14826,-79.017368,VA,Augusta,Staunton
A-3450531,37.313595,-79.406599,VA,Bedford,Goode
A-3450719,37.24065,-80.220691,VA,Montgomery,Elliston
A-3450733,38.510519,-78.782728,VA,Rockingham,Harrisonburg
A-3450996,38.03262,-78.86484,VA,Augusta,Lyndhurst
A-3451019,36.68768,-83.1014,VA,Lee,Jonesville
A-3451095,37.270987,-79.78854399999999,VA,Bedford County,Vinton
A-3451104,37.18479,-77.36789300000002,VA,Petersburg City,Petersburg
A-3451152,36.569537,-76.74460699999999,VA,Suffolk City,Suffolk
A-3451170,38.10775,-77.51773,VA,Spotsylvania,Woodford
A-3451402,37.373412,-79.913759,VA,Botetourt,Roanoke
A-3451462,38.35917,-77.0153,VA,King George,Dahlgren
A-3451494,36.94507700000001,-76.26650500000002,VA,Norfolk,Norfolk
A-3451593,37.24078,-81.11089,VA,Bland,Rocky Gap
A-3451604,38.273384,-79.301202,VA,Augusta,West Augusta
A-3451654,38.085617,-78.471536,VA,Albemarle,Charlottesville
A-3451655,37.41163,-77.04533,VA,New Kent,Providence Forge
A-3451667,37.769804,-76.472004,VA,Lancaster,Lancaster
A-3451694,38.184611,-77.047962,VA,Westmoreland,Colonial Beach
A-3451748,38.099055,-78.180479,VA,Orange,Gordonsville
A-3452136,38.090122,-78.94846899999997,VA,Augusta,Fishersville
A-3452739,37.2063,-75.966347,VA,Northampton,Cape Charles
A-3452792,38.010349,-77.334484,VA,Caroline,Milford
A-3452815,37.22296,-79.46986,VA,Bedford,Bedford
A-3452816,36.788706,-79.934516,VA,Henry,Bassett
A-3452871,36.716824,-80.333523,VA,Patrick,Meadows of Dan
A-3452873,38.187695,-77.619743,VA,Spotsylvania,Spotsylvania
A-3452876,36.565476,-77.568218,VA,Greensville,Skippers
A-3452889,37.507951,-77.105315,VA,New Kent,Quinton
A-3453186,38.224066,-77.45255999999998,VA,Spotsylvania,Fredericksburg
A-3453205,37.824848,-77.455258,VA,Hanover,Doswell
A-3453289,37.123442,-77.93533599999998,VA,Nottoway,Blackstone
A-3453592,37.215882,-78.151078,VA,Nottoway,Crewe
A-3453615,36.8202,-79.58776,VA,Pittsylvania,Chatham
A-3453706,36.78177,-81.73770999999998,VA,Washington,Glade Spring
A-3453734,37.383502,-79.729135,VA,Bedford,Montvale
A-3453794,36.94081,-82.46248,VA,Wise,Coeburn
A-3453840,37.380433,-79.247293,VA,Bedford,Forest
A-3453899,37.43357,-77.33593,VA,Henrico,Henrico
A-3454086,38.63587,-77.67429,VA,Fauquier,Catlett
A-3454279,36.93769,-76.58639000000002,VA,Isle of Wight,Smithfield
A-3454433,37.675632,-79.500499,VA,Rockbridge,Natural Bridge
A-3454785,38.269518,-78.938004,VA,Augusta,Mount Sidney
A-3454860,36.598146,-78.155126,VA,Mecklenburg,Bracey
A-3454862,38.039915,-77.002864,VA,Essex,Champlain
A-3454869,36.90805,-76.89532,VA,Southampton,Ivor
A-3454892,38.066042,-79.10583299999998,VA,Augusta,Staunton
A-3454916,37.930756,-78.091151,VA,Louisa,Louisa
A-3455203,36.756297,-76.060996,VA,Virginia Beach,Virginia Beach
A-3455307,37.111616,-80.445084,VA,Montgomery,Christiansburg
A-3455479,37.156904,-80.11836,VA,Roanoke County,Bent Mountain
A-3455487,38.39264,-78.81059,VA,Rockingham,Penn Laird
