ID,Start_Lat,Start_Lng,State,County,City
A-3511227,40.224679,-111.675569,UT,Utah,Provo
A-3511274,40.19373,-111.64806000000002,UT,Utah,Spanish Fork
A-3511275,40.143644,-111.64666,UT,Utah,Spanish Fork
A-3511286,40.347206,-111.764297,UT,Utah,Pleasant Grove
A-3511405,40.001381,-111.762769,UT,Utah,Payson
A-3511666,40.30095,-111.726,UT,Utah,Orem
A-3511731,40.25318,-111.69731000000002,UT,Utah,Provo
