ID,Start_Lat,Start_Lng,State,County,City
A-3453201,35.948426,-76.957116,NC,Bertie,Windsor
A-3454694,35.460099,-83.016202,NC,Haywood,Waynesville
A-3449237,34.860544,-79.999125,NC,Anson,Morven
A-3446733,34.0172,-78.27306999999998,NC,Brunswick,Supply
A-3452198,36.49108,-80.74635,NC,Surry,Mount Airy
A-3449773,36.07728,-78.76953,NC,Granville,Creedmoor
A-3446465,35.27275,-81.1599,NC,Gaston,Gastonia
A-3453068,34.97247,-78.86533,NC,Cumberland,Fayetteville
A-3454071,35.175479,-77.678461,NC,Lenoir,Kinston
A-3453774,36.03153,-79.80945,NC,Guilford,Greensboro
A-3453229,35.62336,-82.19896,NC,McDowell,Old Fort
A-3451548,35.97305,-77.87994,NC,Nash,Rocky Mount
A-3454676,35.63115999999999,-80.49382,NC,Rowan,Salisbury
A-3454043,35.4381,-78.42283,NC,Johnston,Four Oaks
A-3453373,35.72677,-81.55781999999998,NC,Burke,Valdese
A-3454161,36.43272,-78.29321999999998,NC,Warren,Manson
A-3449671,34.34767,-77.88231999999998,NC,New Hanover,Castle Hayne
A-3453566,36.07257,-79.268,NC,Alamance,Mebane
A-3455139,35.151633000000004,-80.62956,NC,Mecklenburg,Charlotte
A-3455163,35.65614799999999,-78.955211,NC,Wake,New Hill
A-3446142,36.09228,-80.25072,NC,Forsyth,Winston Salem
A-3454705,35.53349,-82.60233000000002,NC,Buncombe,Asheville
A-3445666,35.80904,-80.86654899999998,NC,Iredell,Statesville
A-3453605,34.959908,-78.45796899999998,NC,Sampson,Roseboro
A-3450955,35.83471,-78.330337,NC,Wake,Zebulon
A-3455042,34.62236,-79.0549,NC,Robeson,Lumberton
A-3450713,35.24807,-82.33309,NC,Polk,Saluda
A-3445922,35.45044199999999,-80.79633199999998,NC,Mecklenburg,Davidson
A-3446416,35.75371,-78.64465,NC,Wake,Raleigh
A-3449033,35.773307,-79.616247,NC,Randolph,Ramseur
A-3448457,36.31894000000001,-80.44131,NC,Stokes,Pinnacle
A-3451662,35.98840999999999,-77.24393,NC,Martin,Oak City
A-3446548,35.111005,-80.915654,NC,Mecklenburg,Pineville
A-3446117,35.028551,-79.14014399999998,NC,Hoke,Raeford
A-3452151,35.849086,-80.121904,NC,Davidson,Thomasville
A-3450127,36.23602,-80.81659,NC,Yadkin,Jonesville
A-3450802,35.9478,-78.99611,NC,Durham,Durham
A-3448944,36.06169000000001,-79.56095,NC,Guilford,Whitsett
A-3454521,36.08327,-78.31416999999998,NC,Franklin,Louisburg
A-3454343,35.15705,-78.71828000000002,NC,Cumberland,Wade
A-3453765,35.22802,-78.35361999999998,NC,Sampson,Newton Grove
A-3448320,35.34514799999999,-80.968409,NC,Mecklenburg,Charlotte
A-3451698,36.09344,-80.00065,NC,Guilford,Colfax
A-3453993,35.802181,-80.390454,NC,Davidson,Lexington
A-3451179,35.822854,-78.82613,NC,Wake,Morrisville
A-3453519,35.255385,-80.79355799999998,NC,Mecklenburg,Charlotte
A-3454253,35.46901,-80.58493,NC,Cabarrus,Kannapolis
A-3449969,35.660349,-78.485947,NC,Johnston,Clayton
A-3455306,34.835264,-78.977426,NC,Robeson,Saint Pauls
A-3450188,35.898094,-78.55834899999998,NC,Wake,Raleigh
A-3450147,35.40084,-82.51131,NC,Henderson,Hendersonville
A-3445665,35.52138,-78.28596999999998,NC,Johnston,Selma
A-3445959,35.0605,-80.76507,NC,Mecklenburg,Matthews
A-3447201,35.575895,-80.709067,NC,Iredell,Mooresville
A-3449156,35.656663,-80.86140400000002,NC,Iredell,Troutman
A-3452532,35.58388,-82.45898000000003,NC,Buncombe,Asheville
A-3454306,35.61405999999999,-78.684461,NC,Wake,Raleigh
A-3446290,36.040874,-80.376919,NC,Forsyth,Clemmons
A-3452989,36.0345,-79.093,NC,Orange,Hillsborough
A-3446125,35.978295,-78.686651,NC,Wake,Raleigh
A-3450784,36.013201,-78.874548,NC,Durham,Durham
A-3454650,35.79823,-78.48742,NC,Wake,Knightdale
A-3445822,35.2375,-80.92014,NC,Mecklenburg,Charlotte
A-3448712,35.35599000000001,-80.72623,NC,Mecklenburg,Charlotte
A-3450780,35.2579,-81.04479,NC,Gaston,Belmont
A-3454194,35.2533,-82.21889,NC,Polk,Columbus
A-3454414,35.83586,-80.28144,NC,Davidson,Lexington
A-3454303,35.858554,-78.68070999999998,NC,Wake,Raleigh
A-3449098,34.96313,-80.03836700000002,NC,Anson,Wadesboro
A-3452995,35.34867,-80.84903,NC,Mecklenburg,Charlotte
A-3454507,35.94067000000001,-78.79525,NC,Durham,Durham
A-3449653,35.71724099999999,-78.84184599999998,NC,Wake,Apex
A-3452560,35.53379,-80.86179,NC,Iredell,Mooresville
A-3454826,35.163158,-80.739818,NC,Mecklenburg,Charlotte
A-3447593,36.07519,-80.10471,NC,Forsyth,Kernersville
A-3448251,35.25406,-80.65454,NC,Mecklenburg,Charlotte
A-3449924,36.06069,-79.90250999999998,NC,Guilford,Greensboro
A-3450422,35.14841,-80.83091999999998,NC,Mecklenburg,Charlotte
A-3446937,35.03032,-80.85171,NC,Mecklenburg,Charlotte
A-3451147,35.76654,-78.73536999999997,NC,Wake,Raleigh
A-3452993,35.57230999999999,-80.55829,NC,Rowan,China Grove
A-3453717,34.92934,-78.94023,NC,Cumberland,Hope Mills
A-3453329,35.63056,-78.56626999999997,NC,Wake,Garner
A-3449842,35.82073,-78.59174,NC,Wake,Raleigh
A-3451332,36.07351,-79.16660999999998,NC,Orange,Efland
A-3455371,35.43557,-80.65725,NC,Cabarrus,Concord
A-3448085,35.89451,-78.8603,NC,Durham,Durham
A-3451993,36.01988,-79.73262,NC,Guilford,Greensboro
A-3447810,35.72635,-80.38329,NC,Davidson,Linwood
A-3452626,35.44255,-80.87105,NC,Mecklenburg,Huntersville
A-3447055,35.16813,-80.96431,NC,Mecklenburg,Charlotte
A-3450800,35.47826,-82.55468,NC,Buncombe,Arden
A-3454591,35.72858,-80.8584,NC,Iredell,Statesville
A-3453281,35.90949000000001,-78.93042,NC,Durham,Durham
A-3455049,35.70039000000001,-78.58079000000002,NC,Wake,Garner
A-3449334,36.111199,-80.165356,NC,Forsyth,Winston Salem
A-3448150,35.596623,-82.571271,NC,Buncombe,Asheville
A-3454653,35.21541,-80.853429,NC,Mecklenburg,Charlotte
A-3445855,35.10277,-80.98872,NC,Mecklenburg,Charlotte
A-3453855,36.06814,-79.49401,NC,Alamance,Burlington
A-3448316,35.395251,-80.923852,NC,Mecklenburg,Huntersville
A-3446973,35.384223,-80.786887,NC,Mecklenburg,Huntersville
A-3447816,35.82988,-78.76007,NC,Wake,Cary
A-3447550,35.291325,-80.728388,NC,Mecklenburg,Charlotte
A-3447207,35.997551,-79.864417,NC,Guilford,Greensboro
A-3454517,35.893893,-78.62276,NC,Wake,Raleigh
A-3446949,35.30198,-80.92081,NC,Mecklenburg,Charlotte
A-3447863,35.23352,-80.98559,NC,Mecklenburg,Charlotte
A-3448241,35.16628,-80.88909,NC,Mecklenburg,Charlotte
A-3450426,35.28185999999999,-80.84787,NC,Mecklenburg,Charlotte
A-3450247,35.22297000000001,-80.705825,NC,Mecklenburg,Charlotte
A-3447544,35.196759,-80.79129499999998,NC,Mecklenburg,Charlotte
A-3454535,35.086861,-80.836988,NC,Mecklenburg,Charlotte
A-3445667,36.06075,-80.19381,NC,Forsyth,Winston Salem
A-3451110,35.317147,-80.780233,NC,Mecklenburg,Charlotte
A-3451498,36.0285,-78.92833,NC,Durham,Durham
A-3451547,35.91417,-78.67678000000002,NC,Wake,Raleigh
A-3450755,35.88225,-78.741517,NC,Wake,Raleigh
A-3451513,35.73953,-78.8918,NC,Wake,Apex
A-3450981,35.231309,-80.605471,NC,Mecklenburg,Charlotte
A-3449766,35.79996,-78.69364,NC,Wake,Raleigh
A-3451581,35.75372,-78.58415,NC,Wake,Raleigh
A-3452443,35.398973,-80.838334,NC,Mecklenburg,Huntersville
A-3447329,35.40482,-80.6963,NC,Cabarrus,Concord
A-3447887,36.0772,-79.94925,NC,Guilford,Greensboro
A-3448311,35.110775,-80.79363199999997,NC,Mecklenburg,Charlotte
A-3449487,35.30104,-80.98696,NC,Mecklenburg,Charlotte
A-3447208,36.05999,-79.60855,NC,Guilford,Whitsett
A-3448587,35.834819,-78.639862,NC,Wake,Raleigh
A-3451789,35.2628,-81.09145,NC,Gaston,Lowell
A-3450817,35.039118,-80.806136,NC,Mecklenburg,Charlotte
A-3454182,35.220471,-80.751981,NC,Mecklenburg,Charlotte
A-3450263,35.89568,-78.78992,NC,Wake,Morrisville
A-3455183,35.49072800000001,-80.87228499999998,NC,Mecklenburg,Cornelius
A-3451237,35.43825,-82.53397,NC,Henderson,Fletcher
A-3455354,35.12727,-78.75005,NC,Cumberland,Wade
A-3452795,35.118187,-80.867032,NC,Mecklenburg,Charlotte
A-3449248,35.75203,-78.69556,NC,Wake,Raleigh
A-3450327,36.046293,-79.769757,NC,Guilford,Greensboro
A-3451804,35.25954,-80.88224,NC,Mecklenburg,Charlotte
A-3448420,35.20589000000001,-80.89372,NC,Mecklenburg,Charlotte
A-3449335,36.09763,-80.2089,NC,Forsyth,Winston Salem
A-3451063,35.31468800000001,-80.696923,NC,Mecklenburg,Charlotte
A-3454254,35.50122,-80.56265,NC,Cabarrus,Kannapolis
A-3453185,35.20833,-80.6701,NC,Mecklenburg,Mint Hill
A-3451663,36.01394000000001,-77.21515,NC,Bertie,Lewiston Woodville
