{"count":58,"displayed_count":58,"exact_count":2920,"points":[{"City":"Columbia","County":"Monroe","ID":"A-3455319","State":"IL","lat":38.42758,"lng":-90.17725},{"City":"Winthrop Harbor","County":"Lake","ID":"A-3453276","State":"IL","lat":42.47571,"lng":-87.824327},{"City":"Rock Island","County":"Rock Island","ID":"A-167599","State":"IL","lat":41.519527,"lng":-90.513084},{"City":"Marshall","County":"Clark","ID":"A-167978","State":"IL","lat":39.42775,"lng":-87.56031},{"City":"Mc Lean","County":"McLean","ID":"A-3451706","State":"IL","lat":40.31157,"lng":-89.171095},{"City":"Sheldon","County":"Iroquois","ID":"A-3455140","State":"IL","lat":40.77045,"lng":-87.52602},{"City":"Steward","County":"Lee","ID":"A-3447416","State":"IL","lat":41.85325,"lng":-89.01044},{"City":"Centralia","County":"Marion","ID":"A-168828","State":"IL","lat":38.512371,"lng":-88.960091},{"City":"New Berlin","County":"Sangamon","ID":"A-3453708","State":"IL","lat":39.73995,"lng":-89.93028},{"City":"Joliet","County":"Will","ID":"A-168239","State":"IL","lat":41.511154,"lng":-88.12439},{"City":"Urbana","County":"Champaign","ID":"A-167716","State":"IL","lat":40.121273,"lng":-88.173622},{"City":"Mount Carroll","County":"Carroll","ID":"A-168011","State":"IL","lat":42.192738,"lng":-89.996674},{"City":"Effingham","County":"Effingham","ID":"A-3447261","State":"IL","lat":39.11993,"lng":-88.54082},{"City":"Woodstock","County":"McHenry","ID":"A-3452329","State":"IL","lat":42.33893,"lng":-88.51126},{"City":"Pocahontas","County":"Bond","ID":"A-3449065","State":"IL","lat":38.802187,"lng":-89.598551},{"City":"Peoria","County":"Peoria","ID":"A-168810","State":"IL","lat":40.801727,"lng":-89.631042},{"City":"Chicago","County":"Cook","ID":"A-3455435","State":"IL","lat":41.86758,"lng":-87.61888},{"City":"Marseilles","County":"La Salle","ID":"A-167713","State":"IL","lat":41.307579,"lng":-88.702217},{"City":"Princeton","County":"Bureau","ID":"A-3454501","State":"IL","lat":41.40012,"lng":-89.38887},{"City":"Danville","County":"Vermilion","ID":"A-168797","State":"IL","lat":40.113693,"lng":-87.610176},{"City":"Pecatonica","County":"Winnebago","ID":"A-167896","State":"IL","lat":42.275291,"lng":-89.446815},{"City":"Mason City","County":"Mason","ID":"A-3454231","State":"IL","lat":40.20293,"lng":-89.71576},{"City":"Schaumburg","County":"Cook","ID":"A-3453648","State":"IL","lat":42.048567,"lng":-88.098589},{"City":"Rock Falls","County":"Whiteside","ID":"A-3453608","State":"IL","lat":41.752759,"lng":-89.760951},{"City":"Roscoe","County":"Winnebago","ID":"A-167534","State":"IL","lat":42.456841,"lng":-88.995193},{"City":"Illiopolis","County":"Sangamon","ID":"A-3449512","State":"IL","lat":39.83659,"lng":-89.26122},{"City":"Beecher","County":"Will","ID":"A-3454440","State":"IL","lat":41.390223,"lng":-87.626513},{"City":"Farmer City","County":"De Witt","ID":"A-168201","State":"IL","lat":40.251324,"lng":-88.625046},{"City":"Elburn","County":"Kane","ID":"A-3453532","State":"IL","lat":41.855144,"lng":-88.520103},{"City":"Greenup","County":"Cumberland","ID":"A-167974","State":"IL","lat":39.255646,"lng":-88.153656},{"City":"Glen Carbon","County":"Madison","ID":"A-3448477","State":"IL","lat":38.75677,"lng":-89.992855},{"City":"Okawville","County":"Washington","ID":"A-168301","State":"IL","lat":38.456043,"lng":-89.561287},{"City":"Fox Lake","County":"Lake","ID":"A-167855","State":"IL","lat":42.393929,"lng":-88.155739},{"City":"Dwight","County":"Livingston","ID":"A-168295","State":"IL","lat":41.093536,"lng":-88.450775},{"City":"Willowbrook","County":"DuPage","ID":"A-168394","State":"IL","lat":41.771507,"lng":-87.935661},{"City":"Glencoe","County":"Cook","ID":"A-3448148","State":"IL","lat":42.13913,"lng":-87.78935},{"City":"Bourbonnais","County":"Kankakee","ID":"A-168481","State":"IL","lat":41.168598,"lng":-87.851341},{"City":"Oregon","County":"Ogle","ID":"A-3453085","State":"IL","lat":42.01096,"lng":-89.296274},{"City":"Sublette","County":"Lee","ID":"A-3452413","State":"IL","lat":41.602427,"lng":-89.178414},{"City":"Springfield","County":"Sangamon","ID":"A-3449079","State":"IL","lat":39.69517,"lng":-89.64217},{"City":"Belvidere","County":"Boone","ID":"A-3448559","State":"IL","lat":42.230174,"lng":-88.776038},{"City":"Aurora","County":"DuPage","ID":"A-167807","State":"IL","lat":41.801056,"lng":-88.240112},{"City":"Carlock","County":"McLean","ID":"A-168289","State":"IL","lat":40.581898,"lng":-89.141144},{"City":"Coal City","County":"Grundy","ID":"A-168309","State":"IL","lat":41.277802,"lng":-88.255676},{"City":"Morton","County":"Tazewell","ID":"A-167611","State":"IL","lat":40.627983,"lng":-89.431679},{"City":"Decatur","County":"Macon","ID":"A-167997","State":"IL","lat":39.895084,"lng":-89.005569},{"City":"Dundee","County":"Kane","ID":"A-3452254","State":"IL","lat":42.139198,"lng":-88.345671},{"City":"Petersburg","County":"Menard","ID":"A-3447299","State":"IL","lat":39.98989,"lng":-89.845065},{"City":"Dekalb","County":"Dekalb","ID":"A-168279","State":"IL","lat":41.941345,"lng":-88.749619},{"City":"Posen","County":"Cook","ID":"A-167741","State":"IL","lat":41.626064,"lng":-87.691399},{"City":"Rockford","County":"Winnebago","ID":"A-168955","State":"IL","lat":42.237892,"lng":-89.077141},{"City":"Lincoln","County":"Logan","ID":"A-168299","State":"IL","lat":40.161224,"lng":-89.339859},{"City":"Libertyville","County":"Lake","ID":"A-3448289","State":"IL","lat":42.283098,"lng":-87.964794},{"City":"Mokena","County":"Will","ID":"A-167571","State":"IL","lat":41.535027,"lng":-87.886421},{"City":"Yorkville","County":"Kendall","ID":"A-3449776","State":"IL","lat":41.667705,"lng":-88.441899},{"City":"East Saint Louis","County":"St. Clair","ID":"A-3446722","State":"IL","lat":38.62588,"lng":-90.16449},{"City":"Schiller Park","County":"Cook","ID":"A-3446658","State":"IL","lat":41.95352,"lng":-87.85664},{"City":"Momence","County":"Kankakee","ID":"A-3448331","State":"IL","lat":41.156947,"lng":-87.656273}]}