{"count":8,"displayed_count":8,"exact_count":266,"points":[{"City":"Chantilly","County":"Loudoun","ID":"A-230541","State":"VA","lat":38.916676,"lng":-77.513268},{"City":"Leesburg","County":"Loudoun","ID":"A-229420","State":"VA","lat":39.216297,"lng":-77.534485},{"City":"Sterling","County":"Loudoun","ID":"A-233570","State":"VA","lat":38.959064,"lng":-77.49926},{"City":"Ashburn","County":"Loudoun","ID":"A-229551","State":"VA","lat":38.994499,"lng":-77.489281},{"City":"Leesburg","County":"Loudoun","ID":"A-230711","State":"VA","lat":39.2216,"lng":-77.534088},{"City":"Ashburn","County":"Loudoun","ID":"A-232613","State":"VA","lat":39.060562,"lng":-77.459206},{"City":"Aldie","County":"Loudoun","ID":"A-229480","State":"VA","lat":38.933861,"lng":-77.550285},{"City":"Ashburn","County":"Loudoun","ID":"A-231638","State":"VA","lat":39.028015,"lng":-77.448318}]}