{"count":16,"displayed_count":16,"exact_count":132,"points":[{"City":"Saint George","County":"Washington","ID":"A-3511578","State":"UT","lat":37.075546,"lng":-113.584929},{"City":"Ogden","County":"Weber","ID":"A-3511057","State":"UT","lat":41.297864,"lng":-111.96889},{"City":"Thompson","County":"Grand","ID":"A-3511135","State":"UT","lat":38.716074,"lng":-109.706169},{"City":"Salina","County":"Sevier","ID":"A-3511417","State":"UT","lat":38.87592,"lng":-111.96007},{"City":"Talmage","County":"Duchesne","ID":"A-3511271","State":"UT","lat":40.165345,"lng":-110.425112},{"City":"Milford","County":"Beaver","ID":"A-3511740","State":"UT","lat":38.420938,"lng":-113.099914},{"City":"Spanish Fork","County":"Utah","ID":"A-3511275","State":"UT","lat":40.143644,"lng":-111.64666},{"City":"Green River","County":"Emery","ID":"A-3511418","State":"UT","lat":38.871965,"lng":-110.764031},{"City":"Tooele","County":"Tooele","ID":"A-3511223","State":"UT","lat":40.593366,"lng":-112.294062},{"City":"East Carbon","County":"Carbon","ID":"A-3511613","State":"UT","lat":39.475092,"lng":-110.503744},{"City":"Parowan","County":"Iron","ID":"A-3511656","State":"UT","lat":37.836837,"lng":-112.875455},{"City":"Park City","County":"Salt Lake","ID":"A-3511404","State":"UT","lat":40.75285,"lng":-111.62586},{"City":"Nephi","County":"Juab","ID":"A-3511434","State":"UT","lat":39.47947,"lng":-111.98281},{"City":"Fillmore","County":"Millard","ID":"A-3511134","State":"UT","lat":38.654199,"lng":-112.597263},{"City":"Hurricane","County":"Washington","ID":"A-3511268","State":"UT","lat":37.36576,"lng":-113.259591},{"City":"Duchesne","County":"Duchesne","ID":"A-3511763","State":"UT","lat":39.886176,"lng":-110.747903}]}