{"count":24,"labels":[{"County":"Multnomah","count":43,"lat":45.54045397674418,"lng":-122.6197971627907},{"County":"Umatilla","count":17,"lat":45.635479411764706,"lng":-118.8467294117647},{"County":"Jackson","count":15,"lat":42.33108693333334,"lng":-122.7841196},{"County":"Lane","count":13,"lat":44.032137538461534,"lng":-123.1960533846154},{"County":"Marion","count":13,"lat":44.94223984615384,"lng":-122.94463207692307},{"County":"Clackamas","count":12,"lat":45.35023091666667,"lng":-122.30025825},{"County":"Douglas","count":11,"lat":43.25414181818182,"lng":-123.32695272727273},{"County":"Washington","count":11,"lat":45.47326963636363,"lng":-122.782492},{"County":"Columbia","count":8,"lat":46.117176625,"lng":-123.23988225},{"County":"Deschutes","count":6,"lat":43.98562666666667,"lng":-121.34803833333335},{"County":"Linn","count":6,"lat":44.630127833333326,"lng":-123.05751},{"County":"Malheur","count":6,"lat":43.702276000000005,"lng":-117.02488533333333},{"County":"Baker","count":5,"lat":44.6492504,"lng":-117.6140406},{"County":"Benton","count":5,"lat":44.5133074,"lng":-123.260058},{"County":"Josephine","count":5,"lat":42.51491,"lng":-123.339228},{"County":"Grant","count":4,"lat":44.78651925,"lng":-119.07780625},{"County":"Union","count":4,"lat":45.350713999999996,"lng":-118.006394},{"County":"Wasco","count":4,"lat":45.382785000000005,"lng":-121.44345824999999},{"County":"Clatsop","count":3,"lat":45.97857100000001,"lng":-123.63945566666666},{"County":"Crook","count":2,"lat":44.24754,"lng":-120.99634950000001},{"County":"Hood River","count":2,"lat":45.682362499999996,"lng":-121.801574},{"County":"Jefferson","count":2,"lat":44.795232,"lng":-121.185951},{"County":"Klamath","count":2,"lat":42.715399500000004,"lng":-121.8461165},{"County":"Lincoln","count":2,"lat":44.635059,"lng":-124.053987}]}