{"count":63,"displayed_count":63,"exact_count":6323,"points":[{"City":"Pensacola","County":"Escambia","ID":"A-3454147","State":"FL","lat":30.4034,"lng":-87.34246},{"City":"Miami Beach","County":"Miami-Dade","ID":"A-117088","State":"FL","lat":25.803728,"lng":-80.125626},{"City":"Sanderson","County":"Baker","ID":"A-3455002","State":"FL","lat":30.253925,"lng":-82.405594},{"City":"Sarasota","County":"Sarasota","ID":"A-3449187","State":"FL","lat":27.35989,"lng":-82.54911},{"City":"Bristol","County":"Liberty","ID":"A-3454320","State":"FL","lat":30.505038,"lng":-84.848197},{"City":"Cape Canaveral","County":"Brevard","ID":"A-118477","State":"FL","lat":28.385841,"lng":-80.605591},{"City":"Naples","County":"Collier","ID":"A-116756","State":"FL","lat":26.056023,"lng":-81.68763},{"City":"Sumterville","County":"Sumter","ID":"A-3454060","State":"FL","lat":28.75893,"lng":-82.09771},{"City":"Stuart","County":"Martin","ID":"A-117736","State":"FL","lat":27.10857,"lng":-80.26062},{"City":"Palm Coast","County":"Flagler","ID":"A-120080","State":"FL","lat":29.553858,"lng":-81.218834},{"City":"Lake Placid","County":"Highlands","ID":"A-119191","State":"FL","lat":27.24176,"lng":-81.382233},{"City":"Defuniak Springs","County":"Walton","ID":"A-3447308","State":"FL","lat":30.732772,"lng":-86.355254},{"City":"Kissimmee","County":"Osceola","ID":"A-117340","State":"FL","lat":28.145435,"lng":-81.457191},{"City":"Jacksonville","County":"Duval","ID":"A-3452535","State":"FL","lat":30.372551,"lng":-81.552074},{"City":"Holiday","County":"Pasco","ID":"A-118207","State":"FL","lat":28.195171,"lng":-82.741241},{"City":"Panama City","County":"Bay","ID":"A-3452020","State":"FL","lat":30.202258,"lng":-85.622773},{"City":"Conservation","County":"Broward","ID":"A-117260","State":"FL","lat":26.170547,"lng":-80.8563},{"City":"Micanopy","County":"Alachua","ID":"A-118949","State":"FL","lat":29.49696,"lng":-82.294975},{"City":"North Fort Myers","County":"Lee","ID":"A-117843","State":"FL","lat":26.745892,"lng":-81.917976},{"City":"Osteen","County":"Volusia","ID":"A-116653","State":"FL","lat":28.84511,"lng":-81.163391},{"City":"Tallahassee","County":"Leon","ID":"A-3454021","State":"FL","lat":30.48848,"lng":-84.16363},{"City":"Plant City","County":"Hillsborough","ID":"A-116938","State":"FL","lat":27.937677,"lng":-82.121201},{"City":"Okeechobee","County":"Osceola","ID":"A-3448428","State":"FL","lat":27.7036,"lng":-80.89527},{"City":"Delray Beach","County":"Palm Beach","ID":"A-3447771","State":"FL","lat":26.46674,"lng":-80.08927},{"City":"Bonifay","County":"Holmes","ID":"A-3449818","State":"FL","lat":30.76277,"lng":-85.68979},{"City":"Astor","County":"Lake","ID":"A-3447912","State":"FL","lat":29.171446,"lng":-81.624696},{"City":"Crystal River","County":"Citrus","ID":"A-119274","State":"FL","lat":29.016613,"lng":-82.569191},{"City":"Homestead","County":"Miami-Dade","ID":"A-117970","State":"FL","lat":25.433098,"lng":-80.501472},{"City":"Wauchula","County":"Hardee","ID":"A-120003","State":"FL","lat":27.527634,"lng":-81.809341},{"City":"Okeechobee","County":"Glades","ID":"A-118657","State":"FL","lat":27.142702,"lng":-80.881119},{"City":"Labelle","County":"Hendry","ID":"A-3450348","State":"FL","lat":26.731029,"lng":-81.437673},{"City":"Milton","County":"Santa Rosa","ID":"A-3446233","State":"FL","lat":30.675086,"lng":-86.829648},{"City":"Fort Pierce","County":"St. Lucie","ID":"A-3449303","State":"FL","lat":27.52704,"lng":-80.4552},{"City":"Clermont","County":"Lake","ID":"A-119090","State":"FL","lat":28.546465,"lng":-81.682327},{"City":"Sidell","County":"De Soto","ID":"A-118978","State":"FL","lat":27.193264,"lng":-82.12233},{"City":"St Pete Beach","County":"Pinellas","ID":"A-117220","State":"FL","lat":27.749102,"lng":-82.754616},{"City":"Brooksville","County":"Hernando","ID":"A-116976","State":"FL","lat":28.563034,"lng":-82.500214},{"City":"Fort Lauderdale","County":"Broward","ID":"A-3450916","State":"FL","lat":26.141293,"lng":-80.425637},{"City":"Interlachen","County":"Putnam","ID":"A-120376","State":"FL","lat":29.551319,"lng":-81.877724},{"City":"Port Saint Joe","County":"Gulf","ID":"A-3450032","State":"FL","lat":29.894445,"lng":-85.359708},{"City":"Alachua","County":"Alachua","ID":"A-3453113","State":"FL","lat":29.87536,"lng":-82.54259},{"City":"Saint Augustine","County":"St. Johns","ID":"A-3453112","State":"FL","lat":29.98226,"lng":-81.45935},{"City":"Orlando","County":"Orange","ID":"A-3447223","State":"FL","lat":28.45147,"lng":-81.09999},{"City":"Saint Cloud","County":"Osceola","ID":"A-119787","State":"FL","lat":28.101063,"lng":-80.897903},{"City":"Grant","County":"Brevard","ID":"A-118965","State":"FL","lat":27.918852,"lng":-80.51973},{"City":"Dade City","County":"Pasco","ID":"A-116947","State":"FL","lat":28.346756,"lng":-82.173195},{"City":"Ocala","County":"Marion","ID":"A-120472","State":"FL","lat":29.17745,"lng":-82.089378},{"City":"Immokalee","County":"Collier","ID":"A-117479","State":"FL","lat":26.155752,"lng":-81.345139},{"City":"Bartow","County":"Polk","ID":"A-120565","State":"FL","lat":27.916323,"lng":-81.726402},{"City":"Ruskin","County":"Hillsborough","ID":"A-119292","State":"FL","lat":27.713058,"lng":-82.394157},{"City":"Daytona Beach","County":"Volusia","ID":"A-117102","State":"FL","lat":29.220087,"lng":-81.10305},{"City":"Lake City","County":"Columbia","ID":"A-3445672","State":"FL","lat":30.27298,"lng":-82.75804},{"City":"Estero","County":"Lee","ID":"A-116233","State":"FL","lat":26.448023,"lng":-81.728661},{"City":"Palm Beach Gardens","County":"Palm Beach","ID":"A-118691","State":"FL","lat":26.808735,"lng":-80.094444},{"City":"Mims","County":"Brevard","ID":"A-119665","State":"FL","lat":28.664705,"lng":-80.844543},{"City":"Moore Haven","County":"Glades","ID":"A-3448196","State":"FL","lat":26.83394,"lng":-81.122235},{"City":"Miami","County":"Miami-Dade","ID":"A-119409","State":"FL","lat":25.761057,"lng":-80.480377},{"City":"Sorrento","County":"Lake","ID":"A-3454827","State":"FL","lat":28.85154,"lng":-81.55151},{"City":"Englewood","County":"Sarasota","ID":"A-117242","State":"FL","lat":26.961161,"lng":-82.353043},{"City":"Tampa","County":"Hillsborough","ID":"A-3448081","State":"FL","lat":28.03782,"lng":-82.45501},{"City":"Crescent City","County":"Putnam","ID":"A-119767","State":"FL","lat":29.481728,"lng":-81.545189},{"City":"Punta Gorda","County":"Charlotte","ID":"A-117599","State":"FL","lat":27.018225,"lng":-81.760696},{"City":"Clewiston","County":"Hendry","ID":"A-118981","State":"FL","lat":26.431599,"lng":-81.02774}]}