{"count":8,"displayed_count":8,"exact_count":199,"points":[{"City":"Denver","County":"Denver","ID":"A-3511312","State":"CO","lat":39.73479,"lng":-105.01503},{"City":"Thornton","County":"Adams","ID":"A-3425207","State":"CO","lat":39.938176,"lng":-104.98794},{"City":"Colorado Springs","County":"El Paso","ID":"A-3424883","State":"CO","lat":38.831476,"lng":-104.840994},{"City":"Dillon","County":"Summit","ID":"A-3511762","State":"CO","lat":39.663974,"lng":-105.980156},{"City":"Aurora","County":"Arapahoe","ID":"A-3425813","State":"CO","lat":39.70738,"lng":-104.82738},{"City":"Denver","County":"Denver","ID":"A-3426339","State":"CO","lat":39.771158,"lng":-104.990635},{"City":"Roggen","County":"Weld","ID":"A-3427292","State":"CO","lat":40.07315,"lng":-104.319526},{"City":"Grand Junction","County":"Mesa","ID":"A-3511672","State":"CO","lat":39.110852,"lng":-108.539334}]}