{"count":175,"displayed_count":175,"exact_count":2920,"points":[{"City":"Columbia","County":"Monroe","ID":"A-3455319","State":"IL","lat":38.42758,"lng":-90.17725},{"City":"Winthrop Harbor","County":"Lake","ID":"A-3453276","State":"IL","lat":42.47571,"lng":-87.824327},{"City":"Rock Island","County":"Rock Island","ID":"A-167599","State":"IL","lat":41.519527,"lng":-90.513084},{"City":"Marshall","County":"Clark","ID":"A-167978","State":"IL","lat":39.42775,"lng":-87.56031},{"City":"Mc Lean","County":"McLean","ID":"A-3451706","State":"IL","lat":40.31157,"lng":-89.171095},{"City":"Sheldon","County":"Iroquois","ID":"A-3455140","State":"IL","lat":40.77045,"lng":-87.52602},{"City":"Steward","County":"Lee","ID":"A-3447416","State":"IL","lat":41.85325,"lng":-89.01044},{"City":"Centralia","County":"Marion","ID":"A-168828","State":"IL","lat":38.512371,"lng":-88.960091},{"City":"New Berlin","County":"Sangamon","ID":"A-3453708","State":"IL","lat":39.73995,"lng":-89.93028},{"City":"Joliet","County":"Will","ID":"A-168239","State":"IL","lat":41.511154,"lng":-88.12439},{"City":"Urbana","County":"Champaign","ID":"A-167716","State":"IL","lat":40.121273,"lng":-88.173622},{"City":"Mount Carroll","County":"Carroll","ID":"A-168011","State":"IL","lat":42.192738,"lng":-89.996674},{"City":"Effingham","County":"Effingham","ID":"A-3447261","State":"IL","lat":39.11993,"lng":-88.54082},{"City":"Woodstock","County":"McHenry","ID":"A-3452329","State":"IL","lat":42.33893,"lng":-88.51126},{"City":"Pocahontas","County":"Bond","ID":"A-3449065","State":"IL","lat":38.802187,"lng":-89.598551},{"City":"Peoria","County":"Peoria","ID":"A-168810","State":"IL","lat":40.801727,"lng":-89.631042},{"City":"Chicago","County":"Cook","ID":"A-3455435","State":"IL","lat":41.86758,"lng":-87.61888},{"City":"Marseilles","County":"La Salle","ID":"A-167713","State":"IL","lat":41.307579,"lng":-88.702217},{"City":"Princeton","County":"Bureau","ID":"A-3454501","State":"IL","lat":41.40012,"lng":-89.38887},{"City":"Danville","County":"Vermilion","ID":"A-168797","State":"IL","lat":40.113693,"lng":-87.610176},{"City":"Pecatonica","County":"Winnebago","ID":"A-167896","State":"IL","lat":42.275291,"lng":-89.446815},{"City":"Mason City","County":"Mason","ID":"A-3454231","State":"IL","lat":40.20293,"lng":-89.71576},{"City":"Schaumburg","County":"Cook","ID":"A-3453648","State":"IL","lat":42.048567,"lng":-88.098589},{"City":"Rock Falls","County":"Whiteside","ID":"A-3453608","State":"IL","lat":41.752759,"lng":-89.760951},{"City":"Roscoe","County":"Winnebago","ID":"A-167534","State":"IL","lat":42.456841,"lng":-88.995193},{"City":"Illiopolis","County":"Sangamon","ID":"A-3449512","State":"IL","lat":39.83659,"lng":-89.26122},{"City":"Beecher","County":"Will","ID":"A-3454440","State":"IL","lat":41.390223,"lng":-87.626513},{"City":"Farmer City","County":"De Witt","ID":"A-168201","State":"IL","lat":40.251324,"lng":-88.625046},{"City":"Elburn","County":"Kane","ID":"A-3453532","State":"IL","lat":41.855144,"lng":-88.520103},{"City":"Greenup","County":"Cumberland","ID":"A-167974","State":"IL","lat":39.255646,"lng":-88.153656},{"City":"Glen Carbon","County":"Madison","ID":"A-3448477","State":"IL","lat":38.75677,"lng":-89.992855},{"City":"Okawville","County":"Washington","ID":"A-168301","State":"IL","lat":38.456043,"lng":-89.561287},{"City":"Fox Lake","County":"Lake","ID":"A-167855","State":"IL","lat":42.393929,"lng":-88.155739},{"City":"Dwight","County":"Livingston","ID":"A-168295","State":"IL","lat":41.093536,"lng":-88.450775},{"City":"Willowbrook","County":"DuPage","ID":"A-168394","State":"IL","lat":41.771507,"lng":-87.935661},{"City":"Glencoe","County":"Cook","ID":"A-3448148","State":"IL","lat":42.13913,"lng":-87.78935},{"City":"Bourbonnais","County":"Kankakee","ID":"A-168481","State":"IL","lat":41.168598,"lng":-87.851341},{"City":"Oregon","County":"Ogle","ID":"A-3453085","State":"IL","lat":42.01096,"lng":-89.296274},{"City":"Sublette","County":"Lee","ID":"A-3452413","State":"IL","lat":41.602427,"lng":-89.178414},{"City":"Springfield","County":"Sangamon","ID":"A-3449079","State":"IL","lat":39.69517,"lng":-89.64217},{"City":"Belvidere","County":"Boone","ID":"A-3448559","State":"IL","lat":42.230174,"lng":-88.776038},{"City":"Aurora","County":"DuPage","ID":"A-167807","State":"IL","lat":41.801056,"lng":-88.240112},{"City":"Carlock","County":"McLean","ID":"A-168289","State":"IL","lat":40.581898,"lng":-89.141144},{"City":"Coal City","County":"Grundy","ID":"A-168309","State":"IL","lat":41.277802,"lng":-88.255676},{"City":"Morton","County":"Tazewell","ID":"A-167611","State":"IL","lat":40.627983,"lng":-89.431679},{"City":"Decatur","County":"Macon","ID":"A-167997","State":"IL","lat":39.895084,"lng":-89.005569},{"City":"Dundee","County":"Kane","ID":"A-3452254","State":"IL","lat":42.139198,"lng":-88.345671},{"City":"Petersburg","County":"Menard","ID":"A-3447299","State":"IL","lat":39.98989,"lng":-89.845065},{"City":"Dekalb","County":"Dekalb","ID":"A-168279","State":"IL","lat":41.941345,"lng":-88.749619},{"City":"Posen","County":"Cook","ID":"A-167741","State":"IL","lat":41.626064,"lng":-87.691399},{"City":"Rockford","County":"Winnebago","ID":"A-168955","State":"IL","lat":42.237892,"lng":-89.077141},{"City":"Lincoln","County":"Logan","ID":"A-168299","State":"IL","lat":40.161224,"lng":-89.339859},{"City":"Libertyville","County":"Lake","ID":"A-3448289","State":"IL","lat":42.283098,"lng":-87.964794},{"City":"Mokena","County":"Will","ID":"A-167571","State":"IL","lat":41.535027,"lng":-87.886421},{"City":"Yorkville","County":"Kendall","ID":"A-3449776","State":"IL","lat":41.667705,"lng":-88.441899},{"City":"East Saint Louis","County":"St. Clair","ID":"A-3446722","State":"IL","lat":38.62588,"lng":-90.16449},{"City":"Schiller Park","County":"Cook","ID":"A-3446658","State":"IL","lat":41.95352,"lng":-87.85664},{"City":"Momence","County":"Kankakee","ID":"A-3448331","State":"IL","lat":41.156947,"lng":-87.656273},{"City":"Tolono","County":"Champaign","ID":"A-3447330","State":"IL","lat":39.951676,"lng":-88.267681},{"City":"Altamont","County":"Effingham","ID":"A-168310","State":"IL","lat":39.051952,"lng":-88.719635},{"City":"Hampshire","County":"Kane","ID":"A-3451341","State":"IL","lat":42.151276,"lng":-88.536829},{"City":"New Baden","County":"St. Clair","ID":"A-168300","State":"IL","lat":38.535446,"lng":-89.728699},{"City":"Elgin","County":"Kane","ID":"A-167685","State":"IL","lat":41.978024,"lng":-88.269455},{"City":"Cantrall","County":"Sangamon","ID":"A-3449576","State":"IL","lat":39.939083,"lng":-89.674192},{"City":"Glen Ellyn","County":"Dupage","ID":"A-168670","State":"IL","lat":41.87632,"lng":-88.078094},{"City":"Lansing","County":"Cook","ID":"A-167969","State":"IL","lat":41.577045,"lng":-87.525261},{"City":"Antioch","County":"Lake","ID":"A-3451883","State":"IL","lat":42.466011,"lng":-87.997196},{"City":"Richmond","County":"Mchenry","ID":"A-168651","State":"IL","lat":42.479767,"lng":-88.306068},{"City":"Dalzell","County":"Bureau","ID":"A-168858","State":"IL","lat":41.367634,"lng":-89.218948},{"City":"Belleville","County":"St. Clair","ID":"A-3448451","State":"IL","lat":38.497204,"lng":-90.019794},{"City":"Barrington","County":"Lake","ID":"A-168383","State":"IL","lat":42.212078,"lng":-88.141296},{"City":"Chicago","County":"Cook","ID":"A-167470","State":"IL","lat":41.794388,"lng":-87.770721},{"City":"Peotone","County":"Will","ID":"A-3450407","State":"IL","lat":41.32838,"lng":-87.81929},{"City":"Morris","County":"Grundy","ID":"A-168801","State":"IL","lat":41.377228,"lng":-88.556168},{"City":"East Moline","County":"Rock Island","ID":"A-3451764","State":"IL","lat":41.57953,"lng":-90.36463},{"City":"Poplar Grove","County":"Boone","ID":"A-167447","State":"IL","lat":42.371204,"lng":-88.851547},{"City":"Arlington Heights","County":"Cook","ID":"A-3453646","State":"IL","lat":42.10986,"lng":-87.94645},{"City":"Bolingbrook","County":"Will","ID":"A-168373","State":"IL","lat":41.685043,"lng":-88.067947},{"City":"Richton Park","County":"Cook","ID":"A-3452326","State":"IL","lat":41.48433,"lng":-87.74415},{"City":"Chicago","County":"Cook","ID":"A-3449078","State":"IL","lat":42.01931,"lng":-87.700609},{"City":"Chicago","County":"Cook","ID":"A-3454482","State":"IL","lat":41.733312,"lng":-87.562661},{"City":"North Chicago","County":"Lake","ID":"A-3447013","State":"IL","lat":42.337589,"lng":-87.835921},{"City":"Granite City","County":"Madison","ID":"A-3446370","State":"IL","lat":38.76615,"lng":-90.13088},{"City":"Mendota","County":"La Salle","ID":"A-168525","State":"IL","lat":41.469276,"lng":-89.126991},{"City":"Plainfield","County":"Will","ID":"A-167760","State":"IL","lat":41.622982,"lng":-88.202705},{"City":"Palos Park","County":"Cook","ID":"A-3455067","State":"IL","lat":41.66935,"lng":-87.824217},{"City":"Channahon","County":"Will","ID":"A-167840","State":"IL","lat":41.394768,"lng":-88.192879},{"City":"Rock Falls","County":"Whiteside","ID":"A-3453688","State":"IL","lat":41.75811,"lng":-89.631576},{"City":"Rockford","County":"Winnebago","ID":"A-3451440","State":"IL","lat":42.295479,"lng":-88.964895},{"City":"Springfield","County":"Sangamon","ID":"A-3448658","State":"IL","lat":39.75191,"lng":-89.750961},{"City":"Caseyville","County":"St. Clair","ID":"A-167517","State":"IL","lat":38.614468,"lng":-90.045784},{"City":"Elmhurst","County":"Dupage","ID":"A-168664","State":"IL","lat":41.89016,"lng":-87.961624},{"City":"Crystal Lake","County":"McHenry","ID":"A-3450868","State":"IL","lat":42.240345,"lng":-88.28668},{"City":"Montgomery","County":"Kendall","ID":"A-3453902","State":"IL","lat":41.718911,"lng":-88.338684},{"City":"Auburn","County":"Sangamon","ID":"A-3450418","State":"IL","lat":39.624634,"lng":-89.733078},{"City":"Dundee","County":"Cook","ID":"A-3452044","State":"IL","lat":42.08135,"lng":-88.22352},{"City":"Grayslake","County":"Lake","ID":"A-168158","State":"IL","lat":42.303394,"lng":-88.075989},{"City":"Hanover Park","County":"Cook","ID":"A-167612","State":"IL","lat":41.951801,"lng":-88.160393},{"City":"East Peoria","County":"Tazewell","ID":"A-167673","State":"IL","lat":40.784435,"lng":-89.522285},{"City":"Chicago","County":"Cook","ID":"A-3452599","State":"IL","lat":41.91705,"lng":-87.737525},{"City":"Elk Grove Village","County":"Cook","ID":"A-167941","State":"IL","lat":41.99823,"lng":-87.959412},{"City":"Lake Forest","County":"Lake","ID":"A-3447340","State":"IL","lat":42.232125,"lng":-87.854649},{"City":"New Lenox","County":"Will","ID":"A-168234","State":"IL","lat":41.520161,"lng":-87.991638},{"City":"Barrington","County":"Lake","ID":"A-168655","State":"IL","lat":42.161091,"lng":-88.050598},{"City":"Chicago Heights","County":"Cook","ID":"A-3449563","State":"IL","lat":41.48709,"lng":-87.57735},{"City":"Elgin","County":"Kane","ID":"A-168153","State":"IL","lat":42.03735,"lng":-88.365341},{"City":"Gurnee","County":"Lake","ID":"A-168507","State":"IL","lat":42.391254,"lng":-87.925369},{"City":"Chicago","County":"Cook","ID":"A-167371","State":"IL","lat":41.755817,"lng":-87.663597},{"City":"Ottawa","County":"LaSalle","ID":"A-168304","State":"IL","lat":41.376587,"lng":-88.778526},{"City":"Geneva","County":"Kane","ID":"A-168216","State":"IL","lat":41.888752,"lng":-88.313988},{"City":"Spring Grove","County":"McHenry","ID":"A-168494","State":"IL","lat":42.480843,"lng":-88.204094},{"City":"Marengo","County":"Mchenry","ID":"A-168206","State":"IL","lat":42.25515,"lng":-88.559807},{"City":"Marengo","County":"McHenry","ID":"A-3453839","State":"IL","lat":42.181318,"lng":-88.628592},{"City":"Antioch","County":"Lake","ID":"A-3454373","State":"IL","lat":42.471309,"lng":-88.093572},{"City":"Des Plaines","County":"Cook","ID":"A-167942","State":"IL","lat":42.053616,"lng":-87.868652},{"City":"Rockford","County":"Winnebago","ID":"A-168663","State":"IL","lat":42.314114,"lng":-89.135078},{"City":"McHenry","County":"Lake","ID":"A-167754","State":"IL","lat":42.299385,"lng":-88.179573},{"City":"Lisle","County":"DuPage","ID":"A-167361","State":"IL","lat":41.782139,"lng":-88.092598},{"City":"Sugar Grove","County":"Kane","ID":"A-167331","State":"IL","lat":41.767647,"lng":-88.418716},{"City":"Greenview","County":"Menard","ID":"A-168006","State":"IL","lat":40.018871,"lng":-89.719551},{"City":"Forest Park","County":"Cook","ID":"A-168911","State":"IL","lat":41.873405,"lng":-87.815384},{"City":"Huntley","County":"Kane","ID":"A-168028","State":"IL","lat":42.122475,"lng":-88.432983},{"City":"Crystal Lake","County":"Mchenry","ID":"A-167390","State":"IL","lat":42.234478,"lng":-88.374214},{"City":"Chicago","County":"Cook","ID":"A-3451966","State":"IL","lat":41.64595,"lng":-87.57851},{"City":"Tinley Park","County":"Will","ID":"A-3452956","State":"IL","lat":41.55082,"lng":-87.80006},{"City":"Bloomington","County":"McLean","ID":"A-3447823","State":"IL","lat":40.540164,"lng":-89.06515},{"City":"Troy","County":"Madison","ID":"A-3448021","State":"IL","lat":38.752,"lng":-89.90657},{"City":"Buffalo Grove","County":"Lake","ID":"A-3447804","State":"IL","lat":42.19573,"lng":-87.95397},{"City":"Grayslake","County":"Lake","ID":"A-3446696","State":"IL","lat":42.360567,"lng":-88.011485},{"City":"Chicago","County":"Cook","ID":"A-168231","State":"IL","lat":41.954678,"lng":-87.6446},{"City":"Wheaton","County":"DuPage","ID":"A-167616","State":"IL","lat":41.856968,"lng":-88.160934},{"City":"Shorewood","County":"Will","ID":"A-3451931","State":"IL","lat":41.48582,"lng":-88.20483},{"City":"Lemont","County":"Cook","ID":"A-168381","State":"IL","lat":41.687798,"lng":-87.930862},{"City":"Northbrook","County":"Cook","ID":"A-167765","State":"IL","lat":42.150791,"lng":-87.873451},{"City":"Willow Springs","County":"Cook","ID":"A-3446760","State":"IL","lat":41.746564,"lng":-87.855907},{"City":"Chicago","County":"Cook","ID":"A-168581","State":"IL","lat":41.832413,"lng":-87.694962},{"City":"Bloomingdale","County":"DuPage","ID":"A-168979","State":"IL","lat":41.967842,"lng":-88.080086},{"City":"West Chicago","County":"Dupage","ID":"A-167773","State":"IL","lat":41.890701,"lng":-88.233963},{"City":"Downers Grove","County":"DuPage","ID":"A-3451980","State":"IL","lat":41.75106,"lng":-88.01271},{"City":"Homer Glen","County":"Will","ID":"A-3453545","State":"IL","lat":41.59824,"lng":-88.00728},{"City":"Caledonia","County":"Winnebago","ID":"A-3446650","State":"IL","lat":42.374967,"lng":-88.968389},{"City":"North Aurora","County":"Kane","ID":"A-3451840","State":"IL","lat":41.79597,"lng":-88.322126},{"City":"Chicago","County":"Cook","ID":"A-3452061","State":"IL","lat":41.98153,"lng":-87.78206},{"City":"Wadsworth","County":"Lake","ID":"A-167513","State":"IL","lat":42.464924,"lng":-87.903404},{"City":"Rolling Meadows","County":"Cook","ID":"A-167623","State":"IL","lat":42.086674,"lng":-88.03138},{"City":"Belvidere","County":"Boone","ID":"A-167372","State":"IL","lat":42.291523,"lng":-88.822037},{"City":"Romeoville","County":"Will","ID":"A-168317","State":"IL","lat":41.597309,"lng":-88.130951},{"City":"Downers Grove","County":"DuPage","ID":"A-3447534","State":"IL","lat":41.83151,"lng":-88.01677},{"City":"Homer Glen","County":"Will","ID":"A-168845","State":"IL","lat":41.600075,"lng":-87.925163},{"City":"Oak Lawn","County":"Cook","ID":"A-167401","State":"IL","lat":41.719749,"lng":-87.760345},{"City":"Collinsville","County":"Madison","ID":"A-167767","State":"IL","lat":38.691795,"lng":-90.030411},{"City":"Hillside","County":"Cook","ID":"A-3449336","State":"IL","lat":41.86968,"lng":-87.88883},{"City":"Elgin","County":"Kane","ID":"A-168862","State":"IL","lat":42.057571,"lng":-88.294693},{"City":"Homewood","County":"Cook","ID":"A-3445854","State":"IL","lat":41.57834,"lng":-87.636366},{"City":"Waukegan","County":"Lake","ID":"A-3453275","State":"IL","lat":42.409428,"lng":-87.85499},{"City":"Cary","County":"Mchenry","ID":"A-168124","State":"IL","lat":42.219658,"lng":-88.21315},{"City":"Saint Charles","County":"Kane","ID":"A-167714","State":"IL","lat":41.969772,"lng":-88.34053},{"City":"Bartlett","County":"Cook","ID":"A-167491","State":"IL","lat":42.008129,"lng":-88.203148},{"City":"Lake Zurich","County":"Lake","ID":"A-168341","State":"IL","lat":42.238243,"lng":-88.050896},{"City":"Chicago","County":"Cook","ID":"A-168769","State":"IL","lat":41.804222,"lng":-87.590538},{"City":"Skokie","County":"Cook","ID":"A-3445640","State":"IL","lat":42.06052,"lng":-87.75565},{"City":"Libertyville","County":"Lake","ID":"A-3454484","State":"IL","lat":42.31141,"lng":-87.90267},{"City":"Round Lake Beach","County":"Lake","ID":"A-168602","State":"IL","lat":42.378941,"lng":-88.089737},{"City":"Chicago","County":"Cook","ID":"A-3450417","State":"IL","lat":41.68556,"lng":-87.66197},{"City":"Barrington","County":"Lake","ID":"A-3451074","State":"IL","lat":42.145987,"lng":-88.13609},{"City":"Danville","County":"Vermilion","ID":"A-168787","State":"IL","lat":40.105019,"lng":-87.674339},{"City":"Rock Falls","County":"Whiteside","ID":"A-3452099","State":"IL","lat":41.75124,"lng":-89.69634},{"City":"Wood Dale","County":"DuPage","ID":"A-168002","State":"IL","lat":41.945522,"lng":-87.995392},{"City":"Fairview Heights","County":"St. Clair","ID":"A-167850","State":"IL","lat":38.599049,"lng":-89.985077},{"City":"Oak Brook","County":"DuPage","ID":"A-3448913","State":"IL","lat":41.82988,"lng":-87.954},{"City":"Tinley Park","County":"Cook","ID":"A-3452282","State":"IL","lat":41.58277,"lng":-87.73366},{"City":"Bolingbrook","County":"Will","ID":"A-168689","State":"IL","lat":41.702904,"lng":-88.125397},{"City":"Alsip","County":"Cook","ID":"A-168716","State":"IL","lat":41.662819,"lng":-87.738777},{"City":"Chicago","County":"Cook","ID":"A-167407","State":"IL","lat":41.903248,"lng":-87.674843},{"City":"Collinsville","County":"Madison","ID":"A-167761","State":"IL","lat":38.707981,"lng":-89.958939}]}