{"count":102,"displayed_count":102,"exact_count":203,"points":[{"City":"Portland","County":"Multnomah","ID":"A-3527246","State":"OR","lat":45.574433,"lng":-122.546105},{"City":"Medford","County":"Jackson","ID":"A-3527857","State":"OR","lat":42.31729,"lng":-122.85729},{"City":"Portland","County":"Multnomah","ID":"A-3524184","State":"OR","lat":45.528671,"lng":-122.653017},{"City":"Long Creek","County":"Grant","ID":"A-3525136","State":"OR","lat":44.768879,"lng":-119.093575},{"City":"Newport","County":"Lincoln","ID":"A-3526258","State":"OR","lat":44.634138,"lng":-124.054854},{"City":"Corvallis","County":"Benton","ID":"A-3525986","State":"OR","lat":44.466837,"lng":-123.274163},{"City":"Huntington","County":"Baker","ID":"A-3525605","State":"OR","lat":44.468477,"lng":-117.335927},{"City":"Portland","County":"Clackamas","ID":"A-3528094","State":"OR","lat":45.409109,"lng":-122.626599},{"City":"Portland","County":"Washington","ID":"A-3526079","State":"OR","lat":45.45783,"lng":-122.78458},{"City":"Portland","County":"Multnomah","ID":"A-3526554","State":"OR","lat":45.54108,"lng":-122.47022},{"City":"Springfield","County":"Lane","ID":"A-3528420","State":"OR","lat":44.04562,"lng":-122.902907},{"City":"Salem","County":"Marion","ID":"A-3526644","State":"OR","lat":44.89145,"lng":-122.99369},{"City":"Echo","County":"Umatilla","ID":"A-3528186","State":"OR","lat":45.7462,"lng":-119.10798},{"City":"Portland","County":"Multnomah","ID":"A-3525643","State":"OR","lat":45.668619,"lng":-122.868681},{"City":"Corvallis","County":"Benton","ID":"A-3525983","State":"OR","lat":44.476951,"lng":-123.273106},{"City":"Albany","County":"Linn","ID":"A-3526528","State":"OR","lat":44.72541,"lng":-123.05404},{"City":"Jordan Valley","County":"Malheur","ID":"A-3524857","State":"OR","lat":43.139325,"lng":-117.045035},{"City":"Corvallis","County":"Benton","ID":"A-3525546","State":"OR","lat":44.643716,"lng":-123.234383},{"City":"Portland","County":"Multnomah","ID":"A-3527291","State":"OR","lat":45.53824,"lng":-122.66963},{"City":"Portland","County":"Washington","ID":"A-3526470","State":"OR","lat":45.4495,"lng":-122.78392},{"City":"Long Creek","County":"Grant","ID":"A-3527559","State":"OR","lat":44.714609,"lng":-119.10383},{"City":"Government Camp","County":"Clackamas","ID":"A-3527596","State":"OR","lat":45.28396,"lng":-121.72117},{"City":"Portland","County":"Multnomah","ID":"A-3524398","State":"OR","lat":45.56703,"lng":-122.67853},{"City":"Portland","County":"Multnomah","ID":"A-3528934","State":"OR","lat":45.529132,"lng":-122.601749},{"City":"Portland","County":"Multnomah","ID":"A-3528078","State":"OR","lat":45.53334,"lng":-122.57905},{"City":"Grants Pass","County":"Josephine","ID":"A-3527228","State":"OR","lat":42.57097,"lng":-123.37278},{"City":"Bend","County":"Deschutes","ID":"A-3525812","State":"OR","lat":43.83755,"lng":-121.4222},{"City":"Long Creek","County":"Grant","ID":"A-3527558","State":"OR","lat":44.727369,"lng":-119.10399},{"City":"Cottage Grove","County":"Lane","ID":"A-3528293","State":"OR","lat":43.80485,"lng":-123.04261},{"City":"Portland","County":"Multnomah","ID":"A-3524120","State":"OR","lat":45.49363,"lng":-122.56538},{"City":"Ashland","County":"Jackson","ID":"A-3526051","State":"OR","lat":42.18273,"lng":-122.66419},{"City":"Baker City","County":"Baker","ID":"A-3525154","State":"OR","lat":44.803585,"lng":-117.812996},{"City":"Salem","County":"Marion","ID":"A-3525604","State":"OR","lat":44.84541,"lng":-123.00904},{"City":"Seaside","County":"Clatsop","ID":"A-3525836","State":"OR","lat":45.902489,"lng":-123.756989},{"City":"Portland","County":"Washington","ID":"A-3527282","State":"OR","lat":45.5205,"lng":-122.81052},{"City":"Gold Hill","County":"Jackson","ID":"A-3524279","State":"OR","lat":42.43065,"lng":-123.06436},{"City":"West Linn","County":"Clackamas","ID":"A-3527591","State":"OR","lat":45.364596,"lng":-122.60393},{"City":"Woodburn","County":"Marion","ID":"A-3527295","State":"OR","lat":45.15436,"lng":-122.87757},{"City":"Baker City","County":"Baker","ID":"A-3526052","State":"OR","lat":44.79964,"lng":-117.81251},{"City":"Ontario","County":"Malheur","ID":"A-3524866","State":"OR","lat":44.116638,"lng":-117.06264},{"City":"Springfield","County":"Lane","ID":"A-3527687","State":"OR","lat":44.05891,"lng":-123.04951},{"City":"Maupin","County":"Wasco","ID":"A-3528496","State":"OR","lat":44.962221,"lng":-121.46493},{"City":"Portland","County":"Multnomah","ID":"A-3524395","State":"OR","lat":45.59867,"lng":-122.68443},{"City":"Redmond","County":"Deschutes","ID":"A-3528798","State":"OR","lat":44.26923,"lng":-121.200521},{"City":"Albany","County":"Linn","ID":"A-3529000","State":"OR","lat":44.69802,"lng":-123.05214},{"City":"Portland","County":"Multnomah","ID":"A-3526452","State":"OR","lat":45.5445,"lng":-122.56081},{"City":"Echo","County":"Umatilla","ID":"A-3528200","State":"OR","lat":45.7462,"lng":-119.10798},{"City":"Portland","County":"Washington","ID":"A-3527284","State":"OR","lat":45.5205,"lng":-122.81052},{"City":"Portland","County":"Multnomah","ID":"A-3526008","State":"OR","lat":45.52989,"lng":-122.56394},{"City":"Portland","County":"Multnomah","ID":"A-3528599","State":"OR","lat":45.54573,"lng":-122.5328},{"City":"Monroe","County":"Benton","ID":"A-3528364","State":"OR","lat":44.31319,"lng":-123.29635},{"City":"Government Camp","County":"Clackamas","ID":"A-3527595","State":"OR","lat":45.28177,"lng":-121.71377},{"City":"Springfield","County":"Lane","ID":"A-3528421","State":"OR","lat":44.0509,"lng":-122.862806},{"City":"Albany","County":"Linn","ID":"A-3526847","State":"OR","lat":44.62879,"lng":-123.06187},{"City":"Maupin","County":"Wasco","ID":"A-3524823","State":"OR","lat":45.225252,"lng":-121.697647},{"City":"Florence","County":"Lane","ID":"A-3528512","State":"OR","lat":43.982616,"lng":-124.05078},{"City":"Portland","County":"Multnomah","ID":"A-3525793","State":"OR","lat":45.505394,"lng":-122.673318},{"City":"Albany","County":"Linn","ID":"A-3528514","State":"OR","lat":44.621727,"lng":-123.06185},{"City":"Grants Pass","County":"Josephine","ID":"A-3527227","State":"OR","lat":42.56379,"lng":-123.37185},{"City":"Clatskanie","County":"Columbia","ID":"A-307824","State":"OR","lat":46.093746,"lng":-123.131264},{"City":"Eagle Point","County":"Jackson","ID":"A-3525124","State":"OR","lat":42.391442,"lng":-122.484069},{"City":"Cottage Grove","County":"Douglas","ID":"A-3527327","State":"OR","lat":43.72507,"lng":-123.20537},{"City":"Mosier","County":"Wasco","ID":"A-3525606","State":"OR","lat":45.685712,"lng":-121.396891},{"City":"Portland","County":"Multnomah","ID":"A-3524181","State":"OR","lat":45.528399,"lng":-122.653573},{"City":"Sandy","County":"Clackamas","ID":"A-3524179","State":"OR","lat":45.376802,"lng":-122.095541},{"City":"Warm Springs","County":"Jefferson","ID":"A-3528495","State":"OR","lat":44.824692,"lng":-121.368772},{"City":"Junction City","County":"Lane","ID":"A-3528365","State":"OR","lat":44.22977,"lng":-123.20459},{"City":"Pendleton","County":"Umatilla","ID":"A-3525131","State":"OR","lat":45.6373,"lng":-118.68272},{"City":"Rainier","County":"Columbia","ID":"A-307711","State":"OR","lat":46.096127,"lng":-122.973289},{"City":"Eagle Point","County":"Jackson","ID":"A-3525087","State":"OR","lat":42.39185,"lng":-122.485672},{"City":"Pendleton","County":"Umatilla","ID":"A-3527125","State":"OR","lat":45.597598,"lng":-118.624579},{"City":"Tualatin","County":"Washington","ID":"A-3525091","State":"OR","lat":45.358475,"lng":-122.761968},{"City":"Portland","County":"Washington","ID":"A-3525491","State":"OR","lat":45.50692,"lng":-122.747311},{"City":"Salem","County":"Marion","ID":"A-3526578","State":"OR","lat":45.04634,"lng":-122.97426},{"City":"Sutherlin","County":"Douglas","ID":"A-3524865","State":"OR","lat":43.38593,"lng":-123.33789},{"City":"Salem","County":"Marion","ID":"A-3527198","State":"OR","lat":45.01044,"lng":-122.99405},{"City":"Portland","County":"Multnomah","ID":"A-3526038","State":"OR","lat":45.53596,"lng":-122.66753},{"City":"Huntington","County":"Baker","ID":"A-3525612","State":"OR","lat":44.37062,"lng":-117.29574},{"City":"Portland","County":"Multnomah","ID":"A-3526009","State":"OR","lat":45.52455,"lng":-122.56518},{"City":"Ashland","County":"Jackson","ID":"A-3527843","State":"OR","lat":42.0738,"lng":-122.60562},{"City":"Sandy","County":"Clackamas","ID":"A-3525466","State":"OR","lat":45.376853,"lng":-122.11229},{"City":"Gold Hill","County":"Jackson","ID":"A-3524690","State":"OR","lat":42.42088,"lng":-123.11995},{"City":"Ontario","County":"Malheur","ID":"A-3527765","State":"OR","lat":43.95211,"lng":-117.00588},{"City":"Portland","County":"Multnomah","ID":"A-3527392","State":"OR","lat":45.5055,"lng":-122.67672},{"City":"Portland","County":"Multnomah","ID":"A-3524342","State":"OR","lat":45.52858,"lng":-122.687},{"City":"Portland","County":"Multnomah","ID":"A-3528676","State":"OR","lat":45.575104,"lng":-122.678558},{"City":"Clatskanie","County":"Columbia","ID":"A-307167","State":"OR","lat":46.099831,"lng":-123.162994},{"City":"Ashland","County":"Jackson","ID":"A-3527844","State":"OR","lat":42.07623,"lng":-122.60351},{"City":"Pilot Rock","County":"Umatilla","ID":"A-3527602","State":"OR","lat":45.13791,"lng":-118.95729},{"City":"Eagle Point","County":"Jackson","ID":"A-3525125","State":"OR","lat":42.39185,"lng":-122.485672},{"City":"Redmond","County":"Deschutes","ID":"A-3528799","State":"OR","lat":44.2692,"lng":-121.21277},{"City":"Oregon City","County":"Clackamas","ID":"A-3525329","State":"OR","lat":45.366418,"lng":-122.585149},{"City":"Portland","County":"Multnomah","ID":"A-3526656","State":"OR","lat":45.55298,"lng":-122.67879},{"City":"Ontario","County":"Malheur","ID":"A-3528233","State":"OR","lat":44.049308,"lng":-116.977007},{"City":"The Dalles","County":"Wasco","ID":"A-3525607","State":"OR","lat":45.657955,"lng":-121.214365},{"City":"Salem","County":"Marion","ID":"A-3526577","State":"OR","lat":45.05241,"lng":-122.97143},{"City":"Elgin","County":"Union","ID":"A-3526066","State":"OR","lat":45.617216,"lng":-117.730836},{"City":"Clatskanie","County":"Columbia","ID":"A-307947","State":"OR","lat":46.169888,"lng":-123.487274},{"City":"Clackamas","County":"Clackamas","ID":"A-3527311","State":"OR","lat":45.41097,"lng":-122.57257},{"City":"Baker City","County":"Baker","ID":"A-3528216","State":"OR","lat":44.80393,"lng":-117.81303},{"City":"Umatilla","County":"Umatilla","ID":"A-3527368","State":"OR","lat":45.918348,"lng":-119.330648},{"City":"Ontario","County":"Malheur","ID":"A-3527764","State":"OR","lat":43.981065,"lng":-117.00563}]}