{"count":32,"displayed_count":32,"exact_count":132,"points":[{"City":"Midvale","County":"Salt Lake","ID":"A-3511045","State":"UT","lat":40.6206,"lng":-111.897009},{"City":"Leeds","County":"Washington","ID":"A-3511052","State":"UT","lat":37.24403,"lng":-113.35309},{"City":"Ogden","County":"Weber","ID":"A-3511057","State":"UT","lat":41.297864,"lng":-111.96889},{"City":"West Valley City","County":"Salt Lake","ID":"A-3511072","State":"UT","lat":40.71232,"lng":-111.93897},{"City":"Ogden","County":"Weber","ID":"A-3511122","State":"UT","lat":41.207649,"lng":-111.97926},{"City":"Fillmore","County":"Millard","ID":"A-3511134","State":"UT","lat":38.654199,"lng":-112.597263},{"City":"Thompson","County":"Grand","ID":"A-3511135","State":"UT","lat":38.716074,"lng":-109.706169},{"City":"Tooele","County":"Tooele","ID":"A-3511151","State":"UT","lat":40.542003,"lng":-112.298361},{"City":"Salt Lake City","County":"Salt Lake","ID":"A-3511184","State":"UT","lat":40.81384,"lng":-111.9228},{"City":"Salt Lake City","County":"Salt Lake","ID":"A-3511194","State":"UT","lat":40.74218,"lng":-111.73751},{"City":"Tooele","County":"Tooele","ID":"A-3511218","State":"UT","lat":40.72048,"lng":-112.23043},{"City":"Provo","County":"Utah","ID":"A-3511227","State":"UT","lat":40.224679,"lng":-111.675569},{"City":"Hurricane","County":"Washington","ID":"A-3511268","State":"UT","lat":37.36576,"lng":-113.259591},{"City":"Talmage","County":"Duchesne","ID":"A-3511271","State":"UT","lat":40.165345,"lng":-110.425112},{"City":"Pleasant Grove","County":"Utah","ID":"A-3511286","State":"UT","lat":40.347206,"lng":-111.764297},{"City":"Farmington","County":"Davis","ID":"A-3511290","State":"UT","lat":40.96691,"lng":-111.89136},{"City":"Riverton","County":"Salt Lake","ID":"A-3511301","State":"UT","lat":40.52231,"lng":-111.944956},{"City":"Morgan","County":"Morgan","ID":"A-3511338","State":"UT","lat":41.11317,"lng":-111.76126},{"City":"West Valley City","County":"Salt Lake","ID":"A-3511369","State":"UT","lat":40.71882,"lng":-112.06251},{"City":"Park City","County":"Summit","ID":"A-3511403","State":"UT","lat":40.75089,"lng":-111.6098},{"City":"Payson","County":"Utah","ID":"A-3511405","State":"UT","lat":40.001381,"lng":-111.762769},{"City":"Salina","County":"Sevier","ID":"A-3511417","State":"UT","lat":38.87592,"lng":-111.96007},{"City":"Green River","County":"Emery","ID":"A-3511418","State":"UT","lat":38.871965,"lng":-110.764031},{"City":"Fillmore","County":"Millard","ID":"A-3511419","State":"UT","lat":39.25817,"lng":-112.10932},{"City":"Nephi","County":"Juab","ID":"A-3511433","State":"UT","lat":39.68853,"lng":-111.83093},{"City":"Nephi","County":"Juab","ID":"A-3511434","State":"UT","lat":39.47947,"lng":-111.98281},{"City":"Saint George","County":"Washington","ID":"A-3511475","State":"UT","lat":37.11317,"lng":-113.55622},{"City":"Green River","County":"Emery","ID":"A-3511612","State":"UT","lat":39.461284,"lng":-110.487694},{"City":"Parowan","County":"Iron","ID":"A-3511656","State":"UT","lat":37.836837,"lng":-112.875455},{"City":"Milford","County":"Beaver","ID":"A-3511739","State":"UT","lat":38.411774,"lng":-113.068537},{"City":"Duchesne","County":"Duchesne","ID":"A-3511763","State":"UT","lat":39.886176,"lng":-110.747903},{"City":"Duchesne","County":"Duchesne","ID":"A-3511764","State":"UT","lat":40.059764,"lng":-110.520976}]}