{"count":2385,"displayed_count":2385,"exact_count":59619,"points":[{"City":"Cosmopolis","County":"Grays Harbor","ID":"A-3525807","State":"WA","lat":46.931667,"lng":-123.723726},{"City":"Westfield","County":"Aroostook","ID":"A-3446079","State":"ME","lat":46.480776,"lng":-67.86838},{"City":"Brazoria","County":"Brazoria","ID":"A-3427695","State":"TX","lat":29.015363,"lng":-95.551073},{"City":"Wibaux","County":"Wibaux","ID":"A-3427831","State":"MT","lat":46.94087,"lng":-104.079828},{"City":"Beulah","County":"Benzie","ID":"A-3448426","State":"MI","lat":44.61936,"lng":-86.09916},{"City":"Wellton","County":"Yuma","ID":"A-3511081","State":"AZ","lat":32.69255,"lng":-113.95871},{"City":"Miami Beach","County":"Miami-Dade","ID":"A-117088","State":"FL","lat":25.803728,"lng":-80.125626},{"City":"Cape Charles","County":"Northampton","ID":"A-3452739","State":"VA","lat":37.2063,"lng":-75.966347},{"City":"Kansas City","County":"Platte","ID":"A-3426733","State":"MO","lat":39.2479,"lng":-94.732976},{"City":"Jerome","County":"Jerome","ID":"A-3511347","State":"ID","lat":42.740558,"lng":-114.611592},{"City":"Birmingham","County":"Jefferson","ID":"A-3453574","State":"AL","lat":33.58692,"lng":-86.69316},{"City":"Artesia","County":"Eddy","ID":"A-3427850","State":"NM","lat":32.90573,"lng":-104.43019},{"City":"Pescadero","County":"San Mateo","ID":"A-9073","State":"CA","lat":37.254379,"lng":-122.383202},{"City":"Bemidji","County":"Beltrami","ID":"A-3425317","State":"MN","lat":47.596987,"lng":-94.769456},{"City":"De Beque","County":"Mesa","ID":"A-3511671","State":"CO","lat":39.324842,"lng":-108.206191},{"City":"Philadelphia","County":"Jefferson","ID":"A-3452298","State":"NY","lat":44.165039,"lng":-75.712633},{"City":"Huntington","County":"Cabell","ID":"A-3445736","State":"WV","lat":38.39257,"lng":-82.40806},{"City":"Shelby","County":"Toole","ID":"A-3511717","State":"MT","lat":48.55572,"lng":-112.097862},{"City":"Colby","County":"Thomas","ID":"A-3426622","State":"KS","lat":39.363643,"lng":-101.03619},{"City":"Charleston","County":"Charleston","ID":"A-3452978","State":"SC","lat":32.8142,"lng":-80.03404},{"City":"Effingham","County":"Effingham","ID":"A-167589","State":"IL","lat":39.120304,"lng":-88.554062},{"City":"Gifford","County":"Stevens","ID":"A-3527382","State":"WA","lat":48.30679,"lng":-118.14687},{"City":"Falmouth","County":"Barnstable","ID":"A-198137","State":"MA","lat":41.555164,"lng":-70.610985},{"City":"Windthorst","County":"Clay","ID":"A-3424882","State":"TX","lat":33.570907,"lng":-98.419098},{"City":"La Crosse","County":"La Crosse","ID":"A-3424917","State":"WI","lat":43.767345,"lng":-91.152598},{"City":"LA Place","County":"St. John the Baptist","ID":"A-3426670","State":"LA","lat":30.08553,"lng":-90.43155},{"City":"Tonopah","County":"Esmeralda","ID":"A-3528685","State":"NV","lat":38.142763,"lng":-117.46864},{"City":"Ashland","County":"Jackson","ID":"A-3526051","State":"OR","lat":42.18273,"lng":-122.66419},{"City":"Parowan","County":"Iron","ID":"A-3511656","State":"UT","lat":37.836837,"lng":-112.875455},{"City":"Sioux Falls","County":"Minnehaha","ID":"A-3426859","State":"SD","lat":43.53808,"lng":-96.78022},{"City":"Billings","County":"Yellowstone","ID":"A-3511166","State":"MT","lat":45.79806,"lng":-108.51976},{"City":"Harborcreek","County":"Erie","ID":"A-3452311","State":"PA","lat":42.1427,"lng":-79.91667},{"City":"San Pedro","County":"Los Angeles","ID":"A-55496","State":"CA","lat":33.746147,"lng":-118.304245},{"City":"San Simon","County":"Cochise","ID":"A-3511044","State":"AZ","lat":32.3626,"lng":-109.62755},{"City":"Texarkana","County":"Bowie","ID":"A-3426985","State":"TX","lat":33.454235,"lng":-94.130869},{"City":"Reddick","County":"Marion","ID":"A-119905","State":"FL","lat":29.370533,"lng":-82.228325},{"City":"Cheyenne","County":"Laramie","ID":"A-3425553","State":"WY","lat":41.11532,"lng":-104.84465},{"City":"Clark","County":"Union","ID":"A-3446578","State":"NJ","lat":40.62882,"lng":-74.3025},{"City":"Fort Wayne","County":"Allen","ID":"A-3449624","State":"IN","lat":40.98238,"lng":-85.09128},{"City":"Marion","County":"Crittenden","ID":"A-3448032","State":"AR","lat":35.15302,"lng":-90.070818},{"City":"Long Creek","County":"Grant","ID":"A-3527559","State":"OR","lat":44.714609,"lng":-119.10383},{"City":"Penasco","County":"Taos","ID":"A-3511582","State":"NM","lat":36.295568,"lng":-105.748147},{"City":"Panama City Beach","County":"Bay","ID":"A-3449988","State":"FL","lat":30.18813,"lng":-85.74774},{"City":"Lavonia","County":"Franklin","ID":"A-3446303","State":"GA","lat":34.44659,"lng":-83.12333},{"City":"Danville","County":"Danville City","ID":"A-3449640","State":"VA","lat":36.601936,"lng":-79.414205},{"City":"Chinle","County":"Apache","ID":"A-3511694","State":"AZ","lat":36.150233,"lng":-109.591812},{"City":"Wilson","County":"Teton","ID":"A-3511304","State":"WY","lat":43.54346,"lng":-111.04559},{"City":"Glasgow","County":"Barren","ID":"A-3446328","State":"KY","lat":37.03283,"lng":-85.90582},{"City":"Tulsa","County":"Tulsa","ID":"A-3425789","State":"OK","lat":36.19359,"lng":-95.95335},{"City":"Shippensburg","County":"Cumberland","ID":"A-229673","State":"PA","lat":40.060501,"lng":-77.479164},{"City":"San Antonio","County":"Bexar","ID":"A-3425381","State":"TX","lat":29.535215,"lng":-98.68274},{"City":"Nipton","County":"San Bernardino","ID":"A-3528041","State":"CA","lat":35.467122,"lng":-115.491638},{"City":"Crystal Lake","County":"Mchenry","ID":"A-168032","State":"IL","lat":42.265236,"lng":-88.243011},{"City":"Two Harbors","County":"Lake","ID":"A-3427547","State":"MN","lat":47.02565,"lng":-91.671181},{"City":"Newburg","County":"Phelps","ID":"A-3426723","State":"MO","lat":37.94516,"lng":-91.87924},{"City":"Niagara","County":"Grand Forks","ID":"A-3425363","State":"ND","lat":48.00539,"lng":-97.859596},{"City":"Big Spring","County":"Howard","ID":"A-3427664","State":"TX","lat":32.26224,"lng":-101.49595},{"City":"Ames","County":"Story","ID":"A-161045","State":"IA","lat":42.034538,"lng":-93.61393},{"City":"West Valley City","County":"Salt Lake","ID":"A-3511296","State":"UT","lat":40.69661,"lng":-111.980462},{"City":"Lisbon","County":"Grafton","ID":"A-3453976","State":"NH","lat":44.262699,"lng":-71.824555},{"City":"Truckee","County":"Nevada","ID":"A-3527212","State":"CA","lat":39.329808,"lng":-120.282243},{"City":"Lucile","County":"Idaho","ID":"A-3525754","State":"ID","lat":45.533465,"lng":-116.306424},{"City":"Lenox","County":"Macomb","ID":"A-179516","State":"MI","lat":42.743481,"lng":-82.777374},{"City":"Kaycee","County":"Johnson","ID":"A-3511692","State":"WY","lat":43.503,"lng":-106.45422},{"City":"Cle Elum","County":"Kittitas","ID":"A-307718","State":"WA","lat":47.18317,"lng":-120.903145},{"City":"Camp Verde","County":"Yavapai","ID":"A-3511471","State":"AZ","lat":34.590715,"lng":-111.877142},{"City":"Kettleman City","County":"Kings","ID":"A-3528761","State":"CA","lat":35.97874,"lng":-119.95709},{"City":"Lake Charles","County":"Calcasieu","ID":"A-3425673","State":"LA","lat":30.245204,"lng":-93.182066},{"City":"Chaska","County":"Carver","ID":"A-3427527","State":"MN","lat":44.81736,"lng":-93.59696},{"City":"Castle Hayne","County":"New Hanover","ID":"A-3449671","State":"NC","lat":34.34767,"lng":-77.88232},{"City":"Fort Bragg","County":"Mendocino","ID":"A-8877","State":"CA","lat":39.392719,"lng":-123.810753},{"City":"Fairmont","County":"Marion","ID":"A-3454825","State":"WV","lat":39.48975,"lng":-80.08496},{"City":"Cordele","County":"Crisp","ID":"A-3453599","State":"GA","lat":31.955531,"lng":-83.750722},{"City":"Lincoln","County":"Lancaster","ID":"A-3425395","State":"NE","lat":40.950524,"lng":-96.64358},{"City":"Battle Mountain","County":"Lander","ID":"A-3524502","State":"NV","lat":40.642976,"lng":-116.949803},{"City":"Shawano","County":"Shawano","ID":"A-3448592","State":"WI","lat":44.79706,"lng":-88.837749},{"City":"Las Cruces","County":"Do\ufffda Ana","ID":"A-3511540","State":"NM","lat":32.283029,"lng":-106.866047},{"City":"Buffalo","County":"Leon","ID":"A-266784","State":"TX","lat":31.459661,"lng":-96.083763},{"City":"Jordan Valley","County":"Malheur","ID":"A-3524857","State":"OR","lat":43.139325,"lng":-117.045035},{"City":"Englewood","County":"Sarasota","ID":"A-117242","State":"FL","lat":26.961161,"lng":-82.353043},{"City":"Albany","County":"Linn","ID":"A-3528514","State":"OR","lat":44.621727,"lng":-123.06185},{"City":"Pueblo","County":"Pueblo","ID":"A-3427287","State":"CO","lat":38.39906,"lng":-104.61774},{"City":"Mullinville","County":"Kiowa","ID":"A-3426107","State":"KS","lat":37.58613,"lng":-99.449919},{"City":"Mobile","County":"Mobile","ID":"A-3450292","State":"AL","lat":30.6847,"lng":-88.12695},{"City":"Ridgeland","County":"Madison","ID":"A-3446174","State":"MS","lat":32.430924,"lng":-90.12753},{"City":"Avoca","County":"Steuben","ID":"A-3449852","State":"NY","lat":42.39772,"lng":-77.40094},{"City":"Rock Island","County":"Rock Island","ID":"A-167599","State":"IL","lat":41.519527,"lng":-90.513084},{"City":"Clinton","County":"Kennebec","ID":"A-3451724","State":"ME","lat":44.64616,"lng":-69.52051},{"City":"Wamsutter","County":"Sweetwater","ID":"A-3511662","State":"WY","lat":41.64006,"lng":-108.48334},{"City":"Boulder","County":"Jefferson","ID":"A-3511721","State":"MT","lat":46.263396,"lng":-112.291269},{"City":"Clifton Park","County":"Saratoga","ID":"A-3454179","State":"NY","lat":42.86707,"lng":-73.77592},{"City":"Blaine","County":"Whatcom","ID":"A-3525597","State":"WA","lat":48.98404,"lng":-122.73302},{"City":"Boulevard","County":"San Diego","ID":"A-53650","State":"CA","lat":32.669979,"lng":-116.315353},{"City":"Fort Mill","County":"York","ID":"A-3452632","State":"SC","lat":35.03161,"lng":-80.96272},{"City":"Green River","County":"Emery","ID":"A-3511418","State":"UT","lat":38.871965,"lng":-110.764031},{"City":"Breckenridge","County":"Wilkin","ID":"A-3426934","State":"MN","lat":46.28244,"lng":-96.57931},{"City":"Caledonia","County":"Marion","ID":"A-3449191","State":"OH","lat":40.58322,"lng":-82.99672},{"City":"Cape Girardeau","County":"Cape Girardeau","ID":"A-3446561","State":"MO","lat":37.26319,"lng":-89.56725},{"City":"Chattanooga","County":"Hamilton","ID":"A-3454753","State":"TN","lat":35.05536,"lng":-85.13723},{"City":"Wichita","County":"Sedgwick","ID":"A-3426240","State":"KS","lat":37.75709,"lng":-97.33766},{"City":"Florence","County":"Boone","ID":"A-3455149","State":"KY","lat":38.95108,"lng":-84.63367},{"City":"Indialantic","County":"Brevard","ID":"A-118282","State":"FL","lat":28.102886,"lng":-80.581268},{"City":"Monrovia","County":"Morgan","ID":"A-3449611","State":"IN","lat":39.587132,"lng":-86.569502},{"City":"Casa Blanca","County":"Cibola","ID":"A-3511611","State":"NM","lat":35.01378,"lng":-107.32444},{"City":"Smelterville","County":"Shoshone","ID":"A-3528221","State":"ID","lat":47.54716,"lng":-116.16878},{"City":"Fall Branch","County":"Washington","ID":"A-3453285","State":"TN","lat":36.40199,"lng":-82.61483},{"City":"Powell Butte","County":"Crook","ID":"A-3526311","State":"OR","lat":44.24764,"lng":-121.02815},{"City":"Calumet","County":"Canadian","ID":"A-3425486","State":"OK","lat":35.534,"lng":-98.24193},{"City":"Vail","County":"Eagle","ID":"A-3511414","State":"CO","lat":39.539458,"lng":-106.215234},{"City":"Gordonsville","County":"Orange","ID":"A-3451748","State":"VA","lat":38.099055,"lng":-78.180479},{"City":"Odem","County":"San Patricio","ID":"A-3425406","State":"TX","lat":27.970969,"lng":-97.563767},{"City":"Altona","County":"Clinton","ID":"A-3454959","State":"NY","lat":44.835699,"lng":-73.641138},{"City":"Holland","County":"Ottawa","ID":"A-3452517","State":"MI","lat":42.716363,"lng":-86.044353},{"City":"Clinton","County":"Middlesex","ID":"A-197863","State":"CT","lat":41.289169,"lng":-72.517624},{"City":"Dover","County":"Kent","ID":"A-3445923","State":"DE","lat":39.219688,"lng":-75.574539},{"City":"Carthage","County":"Jasper","ID":"A-3426541","State":"MO","lat":37.17531,"lng":-94.33342},{"City":"Midland","County":"Midland","ID":"A-3446426","State":"MI","lat":43.61105,"lng":-84.417204},{"City":"Dayton","County":"Columbia","ID":"A-308048","State":"WA","lat":46.321075,"lng":-117.972931},{"City":"Waverly","County":"Camden","ID":"A-3455227","State":"GA","lat":31.09325,"lng":-81.60363},{"City":"New Milford","County":"Susquehanna","ID":"A-3448851","State":"PA","lat":41.823701,"lng":-75.68027},{"City":"Dubois","County":"Clark","ID":"A-3511659","State":"ID","lat":44.027073,"lng":-112.792234},{"City":"McKinney","County":"Collin","ID":"A-3426281","State":"TX","lat":33.164485,"lng":-96.643244},{"City":"Arbuckle","County":"Colusa","ID":"A-6531","State":"CA","lat":39.021358,"lng":-122.061455},{"City":"Casa Grande","County":"Pinal","ID":"A-3511373","State":"AZ","lat":32.82051,"lng":-111.68955},{"City":"Lyman","County":"Uinta","ID":"A-3511270","State":"WY","lat":41.35871,"lng":-110.33262},{"City":"Granite Falls","County":"Yellow Medicine","ID":"A-3426570","State":"MN","lat":44.80634,"lng":-95.556832},{"City":"Oak City","County":"Martin","ID":"A-3451662","State":"NC","lat":35.98841,"lng":-77.24393},{"City":"Aiken","County":"Aiken","ID":"A-148181","State":"SC","lat":33.44215,"lng":-81.691536},{"City":"Naubinway","County":"Mackinac","ID":"A-3450900","State":"MI","lat":46.02827,"lng":-85.07881},{"City":"Fulton","County":"Itawamba","ID":"A-3445931","State":"MS","lat":34.225584,"lng":-88.307874},{"City":"Shelbina","County":"Shelby","ID":"A-3426572","State":"MO","lat":39.674415,"lng":-91.949939},{"City":"Newnan","County":"Coweta","ID":"A-3448732","State":"GA","lat":33.337448,"lng":-84.784},{"City":"Rocky Gap","County":"Bland","ID":"A-3451593","State":"VA","lat":37.24078,"lng":-81.11089},{"City":"Hazelwood","County":"St. Louis County","ID":"A-3446562","State":"MO","lat":38.7793,"lng":-90.36496},{"City":"Atwater","County":"Portage","ID":"A-3451651","State":"OH","lat":41.030537,"lng":-81.215325},{"City":"Vona","County":"Kit Carson","ID":"A-3427333","State":"CO","lat":39.29363,"lng":-102.73917},{"City":"Emigrant","County":"Park","ID":"A-3511121","State":"MT","lat":45.21075,"lng":-110.89101},{"City":"Ismay","County":"Custer","ID":"A-3511718","State":"MT","lat":46.520705,"lng":-105.682093},{"City":"Hanna","County":"Carbon","ID":"A-3511677","State":"WY","lat":41.74142,"lng":-106.83714},{"City":"Kingman","County":"Mohave","ID":"A-3511171","State":"AZ","lat":35.19485,"lng":-113.40958},{"City":"Oakdale","County":"Stanislaus","ID":"A-8084","State":"CA","lat":37.761871,"lng":-120.817337},{"City":"Jarrell","County":"Williamson","ID":"A-261603","State":"TX","lat":30.789406,"lng":-97.622688},{"City":"Cameron","County":"Barron","ID":"A-3426063","State":"WI","lat":45.38887,"lng":-91.75566},{"City":"Nogales","County":"Santa Cruz","ID":"A-3511371","State":"AZ","lat":31.371487,"lng":-110.944285},{"City":"Fairview","County":"Williamson","ID":"A-3453835","State":"TN","lat":36.02678,"lng":-87.17916},{"City":"Big Bear City","County":"San Bernardino","ID":"A-57256","State":"CA","lat":34.219719,"lng":-116.757629},{"City":"Lake City","County":"Hinsdale","ID":"A-3511378","State":"CO","lat":38.001325,"lng":-107.292451},{"City":"Cascade Locks","County":"Hood River","ID":"A-3527447","State":"OR","lat":45.690655,"lng":-121.730778},{"City":"Show Low","County":"Navajo","ID":"A-3511463","State":"AZ","lat":34.345175,"lng":-110.294286},{"City":"Sigourney","County":"Keokuk","ID":"A-161199","State":"IA","lat":41.336891,"lng":-92.180923},{"City":"Redding","County":"Shasta","ID":"A-3525458","State":"CA","lat":40.58552,"lng":-122.36101},{"City":"Du Bois","County":"Clearfield","ID":"A-3445940","State":"PA","lat":41.125638,"lng":-78.692926},{"City":"Crescent City","County":"Del Norte","ID":"A-3527582","State":"CA","lat":41.75341,"lng":-124.1936},{"City":"Lodi","County":"Columbia","ID":"A-3447016","State":"WI","lat":43.33519,"lng":-89.45388},{"City":"Latta","County":"Dillon","ID":"A-3453409","State":"SC","lat":34.34028,"lng":-79.53712},{"City":"Benton City","County":"Benton","ID":"A-307724","State":"WA","lat":46.244099,"lng":-119.631958},{"City":"Carlock","County":"McLean","ID":"A-168289","State":"IL","lat":40.581898,"lng":-89.141144},{"City":"Cape Neddick","County":"York","ID":"A-3454975","State":"ME","lat":43.23306,"lng":-70.634463},{"City":"Goleta","County":"Santa Barbara","ID":"A-53508","State":"CA","lat":34.410484,"lng":-119.858742},{"City":"Warba","County":"Itasca","ID":"A-3425643","State":"MN","lat":47.13124,"lng":-93.27861},{"City":"Mammoth Lakes","County":"Mono","ID":"A-3525756","State":"CA","lat":37.73089,"lng":-118.967035},{"City":"Lake Isabella","County":"Kern","ID":"A-3528952","State":"CA","lat":35.65684,"lng":-118.440379},{"City":"Tallahassee","County":"Leon","ID":"A-3449736","State":"FL","lat":30.5019,"lng":-84.24272},{"City":"Sheboygan","County":"Sheboygan","ID":"A-3448205","State":"WI","lat":43.71411,"lng":-87.76074},{"City":"Sheldon","County":"Iroquois","ID":"A-3455140","State":"IL","lat":40.77045,"lng":-87.52602},{"City":"Fallon","County":"Churchill","ID":"A-3527741","State":"NV","lat":39.451835,"lng":-118.78166},{"City":"Malad City","County":"Oneida","ID":"A-3511088","State":"ID","lat":42.1804,"lng":-112.23036},{"City":"Seattle","County":"King","ID":"A-307592","State":"WA","lat":47.528278,"lng":-122.35508},{"City":"Asher","County":"Pottawatomie","ID":"A-3427861","State":"OK","lat":34.98571,"lng":-96.867257},{"City":"Evergreen","County":"Conecuh","ID":"A-3449884","State":"AL","lat":31.50848,"lng":-86.92078},{"City":"Parkman","County":"Sheridan","ID":"A-3511105","State":"WY","lat":45.00083,"lng":-107.29797},{"City":"Heiskell","County":"Anderson","ID":"A-3446955","State":"TN","lat":36.123175,"lng":-84.034929},{"City":"Lamoni","County":"Decatur","ID":"A-161284","State":"IA","lat":40.623676,"lng":-93.890137},{"City":"Marshall","County":"Saline","ID":"A-3426614","State":"MO","lat":38.959999,"lng":-93.192798},{"City":"Evansville","County":"Vanderburgh","ID":"A-3453696","State":"IN","lat":38.095143,"lng":-87.5557},{"City":"Warwick","County":"Franklin","ID":"A-195235","State":"MA","lat":42.718895,"lng":-72.359673},{"City":"Avoca","County":"Pottawattamie","ID":"A-161322","State":"IA","lat":41.497669,"lng":-95.336342},{"City":"Waldorf","County":"Charles","ID":"A-232163","State":"MD","lat":38.658005,"lng":-76.87468},{"City":"Buffalo","County":"Erie","ID":"A-3452543","State":"NY","lat":42.959265,"lng":-78.69689},{"City":"Sherburn","County":"Martin","ID":"A-3426926","State":"MN","lat":43.66489,"lng":-94.73295},{"City":"Blue Rock","County":"Muskingum","ID":"A-222313","State":"OH","lat":39.778999,"lng":-81.845291},{"City":"Fillmore","County":"Millard","ID":"A-3511419","State":"UT","lat":39.25817,"lng":-112.10932},{"City":"Elko","County":"Elko","ID":"A-3525750","State":"NV","lat":40.94964,"lng":-115.58928},{"City":"Weimar","County":"Colorado","ID":"A-3425527","State":"TX","lat":29.691373,"lng":-96.780488},{"City":"Livingston","County":"Polk","ID":"A-3426218","State":"TX","lat":30.754583,"lng":-94.912379},{"City":"Aurora","County":"Adams","ID":"A-3425384","State":"CO","lat":39.749939,"lng":-104.826049},{"City":"Soledad","County":"Monterey","ID":"A-5792","State":"CA","lat":36.352592,"lng":-121.267693},{"City":"Hattiesburg","County":"Forrest","ID":"A-3447933","State":"MS","lat":31.32476,"lng":-89.32906},{"City":"Huntington","County":"Baker","ID":"A-3525605","State":"OR","lat":44.468477,"lng":-117.335927},{"City":"Parma","County":"Jackson","ID":"A-180809","State":"MI","lat":42.266037,"lng":-84.620377},{"City":"Hamburg","County":"Berks","ID":"A-233312","State":"PA","lat":40.528179,"lng":-76.090492},{"City":"Fordoche","County":"Pointe Coupee","ID":"A-3426428","State":"LA","lat":30.553794,"lng":-91.699166},{"City":"Stewartville","County":"Olmsted","ID":"A-3426600","State":"MN","lat":43.88683,"lng":-92.48313},{"City":"Oelwein","County":"Fayette","ID":"A-3425071","State":"IA","lat":42.64228,"lng":-91.9087},{"City":"Cumberland","County":"Allegany","ID":"A-228880","State":"MD","lat":39.648983,"lng":-78.761406},{"City":"Bouse","County":"La Paz","ID":"A-3511644","State":"AZ","lat":33.99486,"lng":-114.21688},{"City":"New Albany","County":"Floyd","ID":"A-3450535","State":"IN","lat":38.342225,"lng":-85.804944},{"City":"Mangum","County":"Greer","ID":"A-3427412","State":"OK","lat":34.813657,"lng":-99.335411},{"City":"Jackson","County":"Breathitt","ID":"A-3446333","State":"KY","lat":37.4869,"lng":-83.34368},{"City":"Newton","County":"Roane","ID":"A-3452779","State":"WV","lat":38.58269,"lng":-81.12296},{"City":"Soperton","County":"Treutlen","ID":"A-3446440","State":"GA","lat":32.43466,"lng":-82.50613},{"City":"Holiday","County":"Pasco","ID":"A-118878","State":"FL","lat":28.186527,"lng":-82.755379},{"City":"Garner","County":"Wake","ID":"A-3453329","State":"NC","lat":35.63056,"lng":-78.56627},{"City":"Salix","County":"Woodbury","ID":"A-161114","State":"IA","lat":42.330139,"lng":-96.319046},{"City":"Sutherlin","County":"Douglas","ID":"A-3529071","State":"OR","lat":43.36481,"lng":-123.32902},{"City":"Littlefield","County":"Mohave","ID":"A-3511422","State":"AZ","lat":36.955968,"lng":-113.792274},{"City":"Bonners Ferry","County":"Boundary","ID":"A-3526247","State":"ID","lat":48.807454,"lng":-116.330379},{"City":"Immokalee","County":"Collier","ID":"A-117479","State":"FL","lat":26.155752,"lng":-81.345139},{"City":"Clifton Forge","County":"Alleghany","ID":"A-3447250","State":"VA","lat":37.822016,"lng":-79.745318},{"City":"Pike Road","County":"Montgomery","ID":"A-3450722","State":"AL","lat":32.379303,"lng":-86.015674},{"City":"Frankfort","County":"Herkimer","ID":"A-3453189","State":"NY","lat":43.077231,"lng":-75.106523},{"City":"Toledo","County":"Lucas","ID":"A-181364","State":"OH","lat":41.721436,"lng":-83.501366},{"City":"Amargosa Valley","County":"Nye","ID":"A-3526050","State":"NV","lat":36.595639,"lng":-116.010432},{"City":"Mountain Home","County":"Elmore","ID":"A-3525610","State":"ID","lat":43.217726,"lng":-115.816991},{"City":"Hillsboro","County":"Highland","ID":"A-3452865","State":"OH","lat":39.218333,"lng":-83.433398},{"City":"Butler","County":"Butler","ID":"A-230511","State":"PA","lat":40.879906,"lng":-79.897385},{"City":"Argos","County":"Marshall","ID":"A-3447466","State":"IN","lat":41.303051,"lng":-86.275},{"City":"Frederic","County":"Otsego","ID":"A-3450845","State":"MI","lat":44.873261,"lng":-84.689438},{"City":"Athens","County":"Limestone","ID":"A-3447928","State":"AL","lat":34.77922,"lng":-86.93979},{"City":"Chanute","County":"Neosho","ID":"A-3427797","State":"KS","lat":37.58716,"lng":-95.4778},{"City":"Duchesne","County":"Duchesne","ID":"A-3511764","State":"UT","lat":40.059764,"lng":-110.520976},{"City":"Columbus","County":"Polk","ID":"A-3454194","State":"NC","lat":35.2533,"lng":-82.21889},{"City":"Petersburg","County":"Petersburg City","ID":"A-3451104","State":"VA","lat":37.18479,"lng":-77.367893},{"City":"Baldwinsville","County":"Onondaga","ID":"A-3448670","State":"NY","lat":43.14847,"lng":-76.35465},{"City":"Bodega Bay","County":"Sonoma","ID":"A-7584","State":"CA","lat":38.335163,"lng":-123.048203},{"City":"Troy","County":"Miami","ID":"A-221926","State":"OH","lat":40.101772,"lng":-84.227631},{"City":"Spangle","County":"Spokane","ID":"A-307773","State":"WA","lat":47.390884,"lng":-117.391365},{"City":"Tyler","County":"Smith","ID":"A-266103","State":"TX","lat":32.365387,"lng":-95.323631},{"City":"Kelso","County":"Cowlitz","ID":"A-307221","State":"WA","lat":46.10685,"lng":-122.879295},{"City":"Hardeeville","County":"Jasper","ID":"A-3453050","State":"SC","lat":32.27304,"lng":-81.08093},{"City":"Pleasant Valley","County":"Dutchess","ID":"A-196595","State":"NY","lat":41.688122,"lng":-73.786446},{"City":"Kimball","County":"Kimball","ID":"A-3425246","State":"NE","lat":41.049148,"lng":-103.668931},{"City":"Spiceland","County":"Henry","ID":"A-3447667","State":"IN","lat":39.85339,"lng":-85.42002},{"City":"Hillsboro","County":"Hill","ID":"A-261796","State":"TX","lat":32.056053,"lng":-97.093422},{"City":"Jupiter","County":"Martin","ID":"A-119173","State":"FL","lat":26.973433,"lng":-80.178001},{"City":"Daytona Beach","County":"Volusia","ID":"A-119815","State":"FL","lat":29.235519,"lng":-81.066139},{"City":"Congress","County":"Yavapai","ID":"A-3511362","State":"AZ","lat":34.12343,"lng":-112.95057},{"City":"Avon","County":"Stearns","ID":"A-3426571","State":"MN","lat":45.60264,"lng":-94.4571},{"City":"Brandon","County":"Rutland","ID":"A-3454664","State":"VT","lat":43.772375,"lng":-73.052074},{"City":"Coleman","County":"Clay","ID":"A-146396","State":"GA","lat":31.601265,"lng":-84.847214},{"City":"Jersey Shore","County":"Lycoming","ID":"A-3449824","State":"PA","lat":41.26141,"lng":-77.231133},{"City":"Power","County":"Cascade","ID":"A-3511334","State":"MT","lat":47.55951,"lng":-111.53035},{"City":"Atlantic City","County":"Atlantic","ID":"A-3447395","State":"NJ","lat":39.36249,"lng":-74.44045},{"City":"Edgewood","County":"Santa Fe","ID":"A-3511239","State":"NM","lat":35.062505,"lng":-106.188048},{"City":"Carlsbad","County":"San Diego","ID":"A-3528666","State":"CA","lat":33.15565,"lng":-117.33854},{"City":"Perham","County":"Otter Tail","ID":"A-3425677","State":"MN","lat":46.555691,"lng":-95.491881},{"City":"Clemmons","County":"Forsyth","ID":"A-3446290","State":"NC","lat":36.040874,"lng":-80.376919},{"City":"Clear Lake","County":"Cerro Gordo","ID":"A-161543","State":"IA","lat":43.099625,"lng":-93.345673},{"City":"Shreveport","County":"Caddo","ID":"A-3427442","State":"LA","lat":32.41579,"lng":-93.78867},{"City":"Oregon","County":"Ogle","ID":"A-3453087","State":"IL","lat":42.011,"lng":-89.300029},{"City":"Pismo Beach","County":"San Luis Obispo","ID":"A-3527190","State":"CA","lat":35.153991,"lng":-120.662209},{"City":"Davenport","County":"Polk","ID":"A-118109","State":"FL","lat":28.244637,"lng":-81.656868},{"City":"Dolan Springs","County":"Mohave","ID":"A-3511458","State":"AZ","lat":35.602027,"lng":-114.402789},{"City":"Wayland","County":"Middlesex","ID":"A-197036","State":"MA","lat":42.31411,"lng":-71.369682},{"City":"Thompson","County":"Grand","ID":"A-3511135","State":"UT","lat":38.716074,"lng":-109.706169},{"City":"Valdosta","County":"Lowndes","ID":"A-3446196","State":"GA","lat":30.91503,"lng":-83.25876},{"City":"Burlington Junction","County":"Nodaway","ID":"A-3426645","State":"MO","lat":40.477427,"lng":-95.030253},{"City":"Mora","County":"Kanabec","ID":"A-3425642","State":"MN","lat":45.848252,"lng":-93.344615},{"City":"Lake Placid","County":"Highlands","ID":"A-118340","State":"FL","lat":27.208935,"lng":-81.218765},{"City":"Auburn","County":"Sangamon","ID":"A-3450420","State":"IL","lat":39.626202,"lng":-89.732361},{"City":"Medway","County":"Penobscot","ID":"A-3445552","State":"ME","lat":45.638147,"lng":-68.499932},{"City":"Cumming","County":"Forsyth","ID":"A-147875","State":"GA","lat":34.187744,"lng":-84.141449},{"City":"Stillwater","County":"Payne","ID":"A-3425815","State":"OK","lat":36.06131,"lng":-97.34577},{"City":"Reed Point","County":"Stillwater","ID":"A-3511398","State":"MT","lat":45.70408,"lng":-109.54651},{"City":"La Grande","County":"Union","ID":"A-3528217","State":"OR","lat":45.29436,"lng":-118.0378},{"City":"Greenville","County":"Plumas","ID":"A-3525524","State":"CA","lat":40.134565,"lng":-120.919179},{"City":"Lebec","County":"Los Angeles","ID":"A-3527329","State":"CA","lat":34.66434,"lng":-118.76092},{"City":"Lorain","County":"Lorain","ID":"A-222229","State":"OH","lat":41.411144,"lng":-82.166679},{"City":"Topeka","County":"Shawnee","ID":"A-3425271","State":"KS","lat":39.06225,"lng":-95.74047},{"City":"Beechgrove","County":"Coffee","ID":"A-3450229","State":"TN","lat":35.62233,"lng":-86.24198},{"City":"Hockley","County":"Harris","ID":"A-3427101","State":"TX","lat":30.005081,"lng":-95.785791},{"City":"Weatherford","County":"Parker","ID":"A-264978","State":"TX","lat":32.677795,"lng":-97.896172},{"City":"Princess Anne","County":"Somerset","ID":"A-3445377","State":"MD","lat":38.21339,"lng":-75.69983},{"City":"Buckeye","County":"Maricopa","ID":"A-3511693","State":"AZ","lat":33.131557,"lng":-112.65102},{"City":"Bluemont","County":"Clarke","ID":"A-231552","State":"VA","lat":39.115528,"lng":-77.82782},{"City":"Marshall","County":"Clark","ID":"A-167978","State":"IL","lat":39.42775,"lng":-87.56031},{"City":"Madera","County":"Madera","ID":"A-3527758","State":"CA","lat":36.967383,"lng":-119.79396},{"City":"Linden","County":"Genesee","ID":"A-181034","State":"MI","lat":42.814793,"lng":-83.782272},{"City":"Forsyth","County":"Monroe","ID":"A-146557","State":"GA","lat":32.991322,"lng":-83.844673},{"City":"Dubuque","County":"Dubuque","ID":"A-3427254","State":"IA","lat":42.507637,"lng":-90.667319},{"City":"Chiloquin","County":"Klamath","ID":"A-3525663","State":"OR","lat":42.741383,"lng":-121.838766},{"City":"Dresher","County":"Montgomery","ID":"A-229808","State":"PA","lat":40.128616,"lng":-75.167015},{"City":"Newport","County":"Lincoln","ID":"A-3526258","State":"OR","lat":44.634138,"lng":-124.054854},{"City":"Flagstaff","County":"Coconino","ID":"A-3511513","State":"AZ","lat":35.523994,"lng":-111.54318},{"City":"Pensacola","County":"Escambia","ID":"A-3446701","State":"FL","lat":30.514166,"lng":-87.151209},{"City":"Crossville","County":"Cumberland","ID":"A-3446892","State":"TN","lat":36.043759,"lng":-85.117242},{"City":"Miami","County":"Gila","ID":"A-3511284","State":"AZ","lat":33.390269,"lng":-110.882083},{"City":"Rushmore","County":"Nobles","ID":"A-3426568","State":"MN","lat":43.63745,"lng":-95.79856},{"City":"El Dorado Hills","County":"El Dorado","ID":"A-9066","State":"CA","lat":38.732407,"lng":-121.065857},{"City":"Northport","County":"Tuscaloosa","ID":"A-3453214","State":"AL","lat":33.31192,"lng":-87.63726},{"City":"Bracey","County":"Mecklenburg","ID":"A-3454860","State":"VA","lat":36.598146,"lng":-78.155126},{"City":"West Babylon","County":"Suffolk","ID":"A-195726","State":"NY","lat":40.717789,"lng":-73.314331},{"City":"Jarrettsville","County":"Harford","ID":"A-229093","State":"MD","lat":39.601288,"lng":-76.477478},{"City":"Lexington","County":"Fayette","ID":"A-3447209","State":"KY","lat":37.97677,"lng":-84.52981},{"City":"Paducah","County":"McCracken","ID":"A-3450553","State":"KY","lat":37.029553,"lng":-88.617389},{"City":"Columbia","County":"Richland","ID":"A-3447321","State":"SC","lat":34.04934,"lng":-80.92563},{"City":"Beaumont","County":"Jefferson","ID":"A-3426249","State":"TX","lat":30.05571,"lng":-94.13897},{"City":"Glenwood Springs","County":"Garfield","ID":"A-3511182","State":"CO","lat":39.589549,"lng":-107.184896},{"City":"Antioch","County":"Contra Costa","ID":"A-3525949","State":"CA","lat":38.014458,"lng":-121.751559},{"City":"Desert Center","County":"Riverside","ID":"A-3524798","State":"CA","lat":33.67895,"lng":-115.966109},{"City":"Bisbee","County":"Cochise","ID":"A-3511432","State":"AZ","lat":31.473436,"lng":-109.972071},{"City":"Jacksonville","County":"Duval","ID":"A-3453154","State":"FL","lat":30.14213,"lng":-81.54142},{"City":"Llano","County":"Los Angeles","ID":"A-3528406","State":"CA","lat":34.46606,"lng":-117.684054},{"City":"Seneca","County":"Grundy","ID":"A-3454102","State":"IL","lat":41.37663,"lng":-88.59328},{"City":"Crawfordville","County":"Taliaferro","ID":"A-3448460","State":"GA","lat":33.5297,"lng":-82.9052},{"City":"Greenwood","County":"Greenwood","ID":"A-146874","State":"SC","lat":34.27631,"lng":-82.126778},{"City":"Jonesburg","County":"Montgomery","ID":"A-3427008","State":"MO","lat":38.85762,"lng":-91.302},{"City":"Canterbury","County":"Merrimack","ID":"A-3451752","State":"NH","lat":43.347895,"lng":-71.614202},{"City":"Blackfoot","County":"Bingham","ID":"A-3511411","State":"ID","lat":43.194248,"lng":-112.367461},{"City":"Coalmont","County":"Jackson","ID":"A-3511214","State":"CO","lat":40.386068,"lng":-106.594818},{"City":"Lake City","County":"Columbia","ID":"A-3446880","State":"FL","lat":30.17631,"lng":-82.68667},{"City":"Genesee","County":"Latah","ID":"A-3525073","State":"ID","lat":46.584139,"lng":-116.94339},{"City":"Murrells Inlet","County":"Horry","ID":"A-3455338","State":"SC","lat":33.568145,"lng":-79.033954},{"City":"Blue Lake","County":"Humboldt","ID":"A-3525565","State":"CA","lat":40.922823,"lng":-123.796887},{"City":"New Era","County":"Oceana","ID":"A-179622","State":"MI","lat":43.530769,"lng":-86.467606},{"City":"Long Beach","County":"Harrison","ID":"A-3446729","State":"MS","lat":30.41681,"lng":-89.19541},{"City":"Urbana","County":"Champaign","ID":"A-167716","State":"IL","lat":40.121273,"lng":-88.173622},{"City":"Monticello","County":"Sullivan","ID":"A-196345","State":"NY","lat":41.663948,"lng":-74.700775},{"City":"Phillipsburg","County":"Laclede","ID":"A-3426589","State":"MO","lat":37.59765,"lng":-92.71877},{"City":"Portage","County":"Porter","ID":"A-3451905","State":"IN","lat":41.602,"lng":-87.16649},{"City":"Three Rivers","County":"Tulare","ID":"A-3524403","State":"CA","lat":36.41897,"lng":-118.92175},{"City":"Seaside","County":"Clatsop","ID":"A-3525836","State":"OR","lat":45.902489,"lng":-123.756989},{"City":"Tucson","County":"Pima","ID":"A-3511712","State":"AZ","lat":32.271943,"lng":-110.972122},{"City":"Kykotsmovi Village","County":"Navajo","ID":"A-3511448","State":"AZ","lat":35.805179,"lng":-110.422668},{"City":"Carlton","County":"Carlton","ID":"A-3426137","State":"MN","lat":46.63306,"lng":-92.531638},{"City":"Phenix City","County":"Russell","ID":"A-3453573","State":"AL","lat":32.475219,"lng":-85.030251},{"City":"Rochester","County":"Monroe","ID":"A-3448171","State":"NY","lat":43.21731,"lng":-77.75193},{"City":"Charlestown","County":"Washington","ID":"A-197866","State":"RI","lat":41.373531,"lng":-71.632965},{"City":"Knoxville","County":"Marion","ID":"A-161580","State":"IA","lat":41.303608,"lng":-93.109497},{"City":"Roberts","County":"St. Croix","ID":"A-3425692","State":"WI","lat":44.942198,"lng":-92.522577},{"City":"Bakersfield","County":"Kern","ID":"A-3528694","State":"CA","lat":35.35485,"lng":-119.33063},{"City":"Meeker","County":"Rio Blanco","ID":"A-3511256","State":"CO","lat":40.197113,"lng":-107.826727},{"City":"Pendleton","County":"Umatilla","ID":"A-3526637","State":"OR","lat":45.67264,"lng":-118.83541},{"City":"Lind","County":"Adams","ID":"A-3525107","State":"WA","lat":46.96983,"lng":-118.56884},{"City":"Phoenix","County":"Maricopa","ID":"A-3511116","State":"AZ","lat":33.662712,"lng":-111.947338},{"City":"Las Vegas","County":"Clark","ID":"A-3527743","State":"NV","lat":36.23594,"lng":-115.06208},{"City":"Ash Fork","County":"Yavapai","ID":"A-3511663","State":"AZ","lat":35.21949,"lng":-112.49115},{"City":"Limestone","County":"Cattaraugus","ID":"A-3448968","State":"NY","lat":42.00134,"lng":-78.61924},{"City":"Lewiston","County":"Androscoggin","ID":"A-3455057","State":"ME","lat":44.07215,"lng":-70.18496},{"City":"Oldtown","County":"Bonner","ID":"A-3526700","State":"ID","lat":48.18622,"lng":-117.03154},{"City":"San Marcos","County":"Hays","ID":"A-264723","State":"TX","lat":29.913151,"lng":-97.897713},{"City":"White Pigeon","County":"St. Joseph","ID":"A-3445729","State":"MI","lat":41.792159,"lng":-85.556049},{"City":"Bluffton","County":"Hancock","ID":"A-221939","State":"OH","lat":40.914745,"lng":-83.823433},{"City":"Okawville","County":"Washington","ID":"A-168301","State":"IL","lat":38.456043,"lng":-89.561287},{"City":"Tannersville","County":"Monroe","ID":"A-3447251","State":"PA","lat":41.03961,"lng":-75.31243},{"City":"Oconomowoc","County":"Jefferson","ID":"A-3447392","State":"WI","lat":43.07007,"lng":-88.5552},{"City":"Virginia","County":"St. Louis","ID":"A-3425696","State":"MN","lat":47.581722,"lng":-92.543774},{"City":"Kinston","County":"Lenoir","ID":"A-3454066","State":"NC","lat":35.179795,"lng":-77.673025},{"City":"Wheeling","County":"Ohio","ID":"A-3448249","State":"WV","lat":40.05049,"lng":-80.72621},{"City":"Springfield","County":"Greene","ID":"A-3426789","State":"MO","lat":37.18803,"lng":-93.48218},{"City":"Baytown","County":"Harris","ID":"A-3425730","State":"TX","lat":29.80897,"lng":-94.95889},{"City":"Portageville","County":"New Madrid","ID":"A-3448208","State":"MO","lat":36.426355,"lng":-89.695987},{"City":"Mineral","County":"Lewis","ID":"A-3526087","State":"WA","lat":46.628017,"lng":-122.214313},{"City":"Wausau","County":"Marathon","ID":"A-3451079","State":"WI","lat":44.993748,"lng":-89.657332},{"City":"Brawley","County":"Imperial","ID":"A-3524257","State":"CA","lat":32.914764,"lng":-115.509262},{"City":"Heyburn","County":"Minidoka","ID":"A-3511106","State":"ID","lat":42.56834,"lng":-113.787967},{"City":"Austinburg","County":"Ashtabula","ID":"A-3451234","State":"OH","lat":41.78923,"lng":-80.85148},{"City":"Tomah","County":"Monroe","ID":"A-3448439","State":"WI","lat":43.948269,"lng":-90.331885},{"City":"Acme","County":"Westmoreland","ID":"A-3449650","State":"PA","lat":40.129471,"lng":-79.443545},{"City":"Rockingham","County":"Harrisonburg City","ID":"A-3446565","State":"VA","lat":38.45397,"lng":-78.93163},{"City":"Shawsville","County":"Montgomery","ID":"A-3447270","State":"VA","lat":37.185397,"lng":-80.285748},{"City":"Aragon","County":"Polk","ID":"A-147321","State":"GA","lat":34.101933,"lng":-85.092155},{"City":"Waynesville","County":"Haywood","ID":"A-3454694","State":"NC","lat":35.460099,"lng":-83.016202},{"City":"Lafayette","County":"Tippecanoe","ID":"A-3453310","State":"IN","lat":40.38095,"lng":-86.78608},{"City":"Inez","County":"Victoria","ID":"A-3426262","State":"TX","lat":28.87359,"lng":-96.849122},{"City":"Suffolk","County":"Suffolk City","ID":"A-3455482","State":"VA","lat":36.588242,"lng":-76.684902},{"City":"Clarksville","County":"Ionia","ID":"A-180254","State":"MI","lat":42.879242,"lng":-85.242874},{"City":"Fillmore","County":"Millard","ID":"A-3511416","State":"UT","lat":38.61096,"lng":-112.60921},{"City":"Firebaugh","County":"Fresno","ID":"A-8479","State":"CA","lat":36.890705,"lng":-120.654228},{"City":"Defuniak Springs","County":"Walton","ID":"A-3447308","State":"FL","lat":30.732772,"lng":-86.355254},{"City":"Valdese","County":"Burke","ID":"A-3453373","State":"NC","lat":35.72677,"lng":-81.55782},{"City":"Gold Bar","County":"King","ID":"A-307800","State":"WA","lat":47.762074,"lng":-121.472343},{"City":"Essex","County":"San Bernardino","ID":"A-3527827","State":"CA","lat":34.844906,"lng":-114.970637},{"City":"Osseo","County":"Trempealeau","ID":"A-3425681","State":"WI","lat":44.57523,"lng":-91.20188},{"City":"Portland","County":"Robertson","ID":"A-3450905","State":"TN","lat":36.59162,"lng":-86.60213},{"City":"Columbus","County":"Bartholomew","ID":"A-3454453","State":"IN","lat":39.180904,"lng":-85.866074},{"City":"Carroll","County":"Fairfield","ID":"A-3451820","State":"OH","lat":39.825537,"lng":-82.71985},{"City":"Cedar Rapids","County":"Linn","ID":"A-3426853","State":"IA","lat":41.92641,"lng":-91.53714},{"City":"Ramseur","County":"Randolph","ID":"A-3449033","State":"NC","lat":35.773307,"lng":-79.616247},{"City":"Nice","County":"Lake","ID":"A-5347","State":"CA","lat":39.136452,"lng":-122.858002},{"City":"San Martin","County":"Santa Clara","ID":"A-8710","State":"CA","lat":37.085716,"lng":-121.597458},{"City":"Heathsville","County":"Northumberland","ID":"A-3445540","State":"VA","lat":37.917301,"lng":-76.445845},{"City":"Grants Pass","County":"Josephine","ID":"A-3526513","State":"OR","lat":42.56379,"lng":-123.37185},{"City":"Oshkosh","County":"Winnebago","ID":"A-3451295","State":"WI","lat":44.03719,"lng":-88.58311},{"City":"Wadesboro","County":"Anson","ID":"A-3449098","State":"NC","lat":34.96313,"lng":-80.038367},{"City":"Laramie","County":"Albany","ID":"A-3511497","State":"WY","lat":41.32345,"lng":-105.61535},{"City":"Julian","County":"Centre","ID":"A-3450157","State":"PA","lat":40.86551,"lng":-77.93895},{"City":"Oregon City","County":"Clackamas","ID":"A-3525329","State":"OR","lat":45.366418,"lng":-122.585149},{"City":"Hope Mills","County":"Cumberland","ID":"A-3453717","State":"NC","lat":34.92934,"lng":-78.94023},{"City":"Milford","County":"Caroline","ID":"A-3452792","State":"VA","lat":38.010349,"lng":-77.334484},{"City":"Olympia","County":"Thurston","ID":"A-308002","State":"WA","lat":46.980892,"lng":-122.926987},{"City":"Columbia","County":"Boone","ID":"A-3426446","State":"MO","lat":38.96196,"lng":-92.29494},{"City":"Oroville","County":"Butte","ID":"A-5864","State":"CA","lat":39.514812,"lng":-121.444016},{"City":"Owatonna","County":"Steele","ID":"A-3424936","State":"MN","lat":44.08074,"lng":-93.2482},{"City":"Lee","County":"Berkshire","ID":"A-3455159","State":"MA","lat":42.29902,"lng":-73.23165},{"City":"Weed","County":"Siskiyou","ID":"A-3524160","State":"CA","lat":41.459461,"lng":-122.356615},{"City":"Ludlow","County":"San Bernardino","ID":"A-3525377","State":"CA","lat":34.72594,"lng":-116.15714},{"City":"Bangor","County":"Penobscot","ID":"A-3448572","State":"ME","lat":44.824618,"lng":-68.755985},{"City":"Silver City","County":"Humphreys","ID":"A-3425003","State":"MS","lat":33.111093,"lng":-90.506712},{"City":"Glade Spring","County":"Washington","ID":"A-3453706","State":"VA","lat":36.78177,"lng":-81.73771},{"City":"Fort Dodge","County":"Webster","ID":"A-161540","State":"IA","lat":42.515533,"lng":-94.223717},{"City":"Maupin","County":"Wasco","ID":"A-3528496","State":"OR","lat":44.962221,"lng":-121.46493},{"City":"Morgan City","County":"Assumption","ID":"A-3426032","State":"LA","lat":29.66964,"lng":-91.08429},{"City":"Stevensville","County":"Berrien","ID":"A-3448808","State":"MI","lat":42.03654,"lng":-86.50597},{"City":"Union","County":"Tolland","ID":"A-195940","State":"CT","lat":41.974159,"lng":-72.113144},{"City":"Glennville","County":"Tattnall","ID":"A-3449264","State":"GA","lat":31.918164,"lng":-81.939091},{"City":"Green Bay","County":"Brown","ID":"A-3447677","State":"WI","lat":44.46719,"lng":-87.95238},{"City":"Rock Island","County":"Douglas","ID":"A-3527419","State":"WA","lat":47.372853,"lng":-120.165822},{"City":"Walsenburg","County":"Huerfano","ID":"A-3427152","State":"CO","lat":37.66041,"lng":-104.79633},{"City":"Winslow","County":"Navajo","ID":"A-3511687","State":"AZ","lat":35.02526,"lng":-110.62872},{"City":"Payson","County":"Gila","ID":"A-3511103","State":"AZ","lat":34.26534,"lng":-111.19519},{"City":"Owingsville","County":"Bath","ID":"A-3448360","State":"KY","lat":38.14215,"lng":-83.71711},{"City":"Mount Vernon","County":"Skagit","ID":"A-3527711","State":"WA","lat":48.34502,"lng":-122.33626},{"City":"Crawley","County":"Greenbrier","ID":"A-3445895","State":"WV","lat":37.880169,"lng":-80.568913},{"City":"Plattsmouth","County":"Cass","ID":"A-161629","State":"NE","lat":40.998852,"lng":-95.891747},{"City":"Dayton","County":"Lyon","ID":"A-3527424","State":"NV","lat":39.28979,"lng":-119.537974},{"City":"Sumter","County":"Sumter","ID":"A-3453221","State":"SC","lat":33.895729,"lng":-80.19725},{"City":"Candor","County":"Tioga","ID":"A-3447859","State":"NY","lat":42.201439,"lng":-76.318096},{"City":"Buffalo","County":"Johnson","ID":"A-3511748","State":"WY","lat":44.20651,"lng":-106.22266},{"City":"Oklahoma City","County":"Cleveland","ID":"A-3426633","State":"OK","lat":35.33425,"lng":-97.52988},{"City":"El Paso","County":"El Paso","ID":"A-3511323","State":"TX","lat":31.75541,"lng":-106.35001},{"City":"Newberry","County":"Greene","ID":"A-3446286","State":"IN","lat":38.926169,"lng":-87.019352},{"City":"Rustburg","County":"Campbell","ID":"A-3452416","State":"VA","lat":37.29642,"lng":-79.17169},{"City":"Harrisburg","County":"Dauphin","ID":"A-3445597","State":"PA","lat":40.32516,"lng":-76.79513},{"City":"Depew","County":"Creek","ID":"A-3425262","State":"OK","lat":35.794006,"lng":-96.568003},{"City":"Nampa","County":"Canyon","ID":"A-3527521","State":"ID","lat":43.597483,"lng":-116.476377},{"City":"Dodgeville","County":"Iowa","ID":"A-3451661","State":"WI","lat":42.966217,"lng":-90.099047},{"City":"Dunkirk","County":"Chautauqua","ID":"A-3453885","State":"NY","lat":42.482787,"lng":-79.248329},{"City":"Payson","County":"Utah","ID":"A-3511405","State":"UT","lat":40.001381,"lng":-111.762769},{"City":"Warrensburg","County":"Warren","ID":"A-3453613","State":"NY","lat":43.66533,"lng":-73.7723},{"City":"Bates City","County":"Lafayette","ID":"A-3426679","State":"MO","lat":39.010641,"lng":-94.046517},{"City":"Earlham","County":"Dallas","ID":"A-161203","State":"IA","lat":41.517765,"lng":-94.123566},{"City":"Pound","County":"Wise","ID":"A-3449658","State":"VA","lat":37.126554,"lng":-82.621181},{"City":"Mokena","County":"Will","ID":"A-167571","State":"IL","lat":41.535027,"lng":-87.886421},{"City":"Wimauma","County":"Hillsborough","ID":"A-3446694","State":"FL","lat":27.70487,"lng":-82.216371},{"City":"Council","County":"Adams","ID":"A-3525832","State":"ID","lat":44.81837,"lng":-116.40307},{"City":"Mount Carroll","County":"Carroll","ID":"A-168011","State":"IL","lat":42.192738,"lng":-89.996674},{"City":"Mechanicsburg","County":"Champaign","ID":"A-3449144","State":"OH","lat":40.043792,"lng":-83.511886},{"City":"Alexandria","County":"Douglas","ID":"A-3425657","State":"MN","lat":45.84539,"lng":-95.39274},{"City":"Manton","County":"Wexford","ID":"A-3451068","State":"MI","lat":44.466865,"lng":-85.398959},{"City":"Richmondville","County":"Schoharie","ID":"A-3455069","State":"NY","lat":42.644207,"lng":-74.538209},{"City":"Yakima","County":"Yakima","ID":"A-3525591","State":"WA","lat":46.609824,"lng":-120.489646},{"City":"Pioneer","County":"Amador","ID":"A-3528454","State":"CA","lat":38.63748,"lng":-120.14842},{"City":"Mount Airy","County":"Carroll","ID":"A-230089","State":"MD","lat":39.359455,"lng":-77.16626},{"City":"Terrell","County":"Kaufman","ID":"A-267520","State":"TX","lat":32.667927,"lng":-96.14283},{"City":"Lake Crystal","County":"Blue Earth","ID":"A-3426566","State":"MN","lat":44.12089,"lng":-94.199994},{"City":"Decatur","County":"Macon","ID":"A-167997","State":"IL","lat":39.895084,"lng":-89.005569},{"City":"Charlevoix","County":"Charlevoix","ID":"A-3445646","State":"MI","lat":45.292156,"lng":-85.249707},{"City":"San Rafael","County":"Marin","ID":"A-3525784","State":"CA","lat":37.9426,"lng":-122.47761},{"City":"Loveland","County":"Larimer","ID":"A-3426814","State":"CO","lat":40.43965,"lng":-104.99242},{"City":"Riverside","County":"Riverside","ID":"A-54000","State":"CA","lat":33.846146,"lng":-117.362526},{"City":"Shelburne","County":"Coos","ID":"A-3453981","State":"NH","lat":44.386132,"lng":-71.145062},{"City":"Fort Worth","County":"Tarrant","ID":"A-3427163","State":"TX","lat":32.77451,"lng":-97.21256},{"City":"Marshall","County":"Harrison","ID":"A-3425489","State":"TX","lat":32.48625,"lng":-94.47423},{"City":"Bushnell","County":"Sumter","ID":"A-116905","State":"FL","lat":28.67662,"lng":-82.193695},{"City":"Saint George","County":"Dorchester","ID":"A-3454524","State":"SC","lat":33.1984,"lng":-80.60415},{"City":"Oxnard","County":"Ventura","ID":"A-55195","State":"CA","lat":34.147964,"lng":-119.214722},{"City":"Marion","County":"Grant","ID":"A-3454246","State":"IN","lat":40.589837,"lng":-85.654322},{"City":"Toledo","County":"Tama","ID":"A-3425137","State":"IA","lat":41.96388,"lng":-92.45762},{"City":"San Ysidro","County":"San Diego","ID":"A-57089","State":"CA","lat":32.544304,"lng":-117.032677},{"City":"Cresson","County":"Cambria","ID":"A-231067","State":"PA","lat":40.456936,"lng":-78.567627},{"City":"Baton Rouge","County":"East Baton Rouge","ID":"A-3424971","State":"LA","lat":30.384709,"lng":-91.041255},{"City":"Newcomerstown","County":"Tuscarawas","ID":"A-3453090","State":"OH","lat":40.39104,"lng":-81.55838},{"City":"Carmel","County":"Monterey","ID":"A-3526372","State":"CA","lat":36.468764,"lng":-121.93178},{"City":"Oregonia","County":"Warren","ID":"A-222441","State":"OH","lat":39.435986,"lng":-84.071083},{"City":"Mondamin","County":"Harrison","ID":"A-3425783","State":"IA","lat":41.71556,"lng":-96.04539},{"City":"Ottawa","County":"Franklin","ID":"A-3426867","State":"KS","lat":38.57195,"lng":-95.28106},{"City":"Sodus","County":"Wayne","ID":"A-3448607","State":"NY","lat":43.222893,"lng":-77.022367},{"City":"Toms River","County":"Ocean","ID":"A-3454853","State":"NJ","lat":39.9493,"lng":-74.11512},{"City":"Waukon","County":"Allamakee","ID":"A-3425619","State":"IA","lat":43.24067,"lng":-91.56651},{"City":"Fort Myers","County":"Lee","ID":"A-118756","State":"FL","lat":26.7099,"lng":-81.720718},{"City":"Maurertown","County":"Shenandoah","ID":"A-3451805","State":"VA","lat":38.938631,"lng":-78.470585},{"City":"Easton","County":"Talbot","ID":"A-232014","State":"MD","lat":38.770737,"lng":-76.066307},{"City":"Williamsburg","County":"York","ID":"A-3454286","State":"VA","lat":37.25298,"lng":-76.66001},{"City":"Enumclaw","County":"Pierce","ID":"A-3526043","State":"WA","lat":46.980213,"lng":-121.536041},{"City":"Genoa","County":"Lincoln","ID":"A-3427319","State":"CO","lat":39.27857,"lng":-103.40266},{"City":"Bruceville","County":"McLennan","ID":"A-267098","State":"TX","lat":31.324306,"lng":-97.230438},{"City":"Hubbard","County":"Trumbull","ID":"A-3450698","State":"OH","lat":41.176055,"lng":-80.568414},{"City":"Southbury","County":"New Haven","ID":"A-195874","State":"CT","lat":41.476208,"lng":-73.158424},{"City":"Edon","County":"Williams","ID":"A-3451794","State":"OH","lat":41.62922,"lng":-84.80172},{"City":"Good Hope","County":"Walton","ID":"A-147667","State":"GA","lat":33.789986,"lng":-83.61264},{"City":"Troy","County":"Bradford","ID":"A-3448713","State":"PA","lat":41.805268,"lng":-76.848036},{"City":"Lebanon","County":"Grafton","ID":"A-3451736","State":"NH","lat":43.63173,"lng":-72.21041},{"City":"Gualala","County":"Mendocino","ID":"A-7269","State":"CA","lat":38.777821,"lng":-123.533691},{"City":"Danville","County":"Montour","ID":"A-3450818","State":"PA","lat":40.96007,"lng":-76.584578},{"City":"Janesville","County":"Rock","ID":"A-3455504","State":"WI","lat":42.60691,"lng":-89.03032},{"City":"Monument","County":"El Paso","ID":"A-3427420","State":"CO","lat":39.098152,"lng":-104.863945},{"City":"Florence","County":"Lane","ID":"A-3528512","State":"OR","lat":43.982616,"lng":-124.05078},{"City":"South Charleston","County":"Kanawha","ID":"A-3448822","State":"WV","lat":38.320091,"lng":-81.717869},{"City":"Oak Creek","County":"Milwaukee","ID":"A-3450895","State":"WI","lat":42.86924,"lng":-87.93722},{"City":"Vickery","County":"Sandusky","ID":"A-221976","State":"OH","lat":41.368355,"lng":-82.957115},{"City":"Ashland","County":"Ashland","ID":"A-3451643","State":"OH","lat":40.786815,"lng":-82.339535},{"City":"Redford","County":"Wayne","ID":"A-180212","State":"MI","lat":42.356361,"lng":-83.294258},{"City":"South Pittsburg","County":"Marion","ID":"A-3453265","State":"TN","lat":35.14752,"lng":-85.7763},{"City":"Rayne","County":"Acadia","ID":"A-3426381","State":"LA","lat":30.25249,"lng":-92.2655},{"City":"Creswell","County":"Lane","ID":"A-3527197","State":"OR","lat":43.92233,"lng":-123.01187},{"City":"Orlando","County":"Orange","ID":"A-118475","State":"FL","lat":28.547791,"lng":-81.093636},{"City":"Port Townsend","County":"Jefferson","ID":"A-3526089","State":"WA","lat":47.99028,"lng":-122.868378},{"City":"Cleveland","County":"Cuyahoga","ID":"A-3452291","State":"OH","lat":41.58135,"lng":-81.54016},{"City":"Manchester","County":"Essex","ID":"A-195961","State":"MA","lat":42.590389,"lng":-70.793343},{"City":"Youngsville","County":"Warren","ID":"A-3451653","State":"PA","lat":41.84846,"lng":-79.32631},{"City":"Frankford","County":"Pike","ID":"A-3426591","State":"MO","lat":39.49518,"lng":-91.31571},{"City":"Santa Ysabel","County":"San Diego","ID":"A-59253","State":"CA","lat":33.220146,"lng":-116.705513},{"City":"Rocky Mount","County":"Nash","ID":"A-3451548","State":"NC","lat":35.97305,"lng":-77.87994},{"City":"Bullhead City","County":"Mohave","ID":"A-3511556","State":"AZ","lat":35.02957,"lng":-114.13088},{"City":"Evanston","County":"Uinta","ID":"A-3511269","State":"WY","lat":41.25957,"lng":-110.95811},{"City":"Portsmouth","County":"Scioto","ID":"A-3448562","State":"OH","lat":38.779578,"lng":-82.985119},{"City":"Altoona","County":"Lake","ID":"A-119611","State":"FL","lat":28.978569,"lng":-81.645195},{"City":"Dalzell","County":"Bureau","ID":"A-168858","State":"IL","lat":41.367634,"lng":-89.218948},{"City":"Kent City","County":"Kent","ID":"A-179202","State":"MI","lat":43.277927,"lng":-85.7714},{"City":"Irvington","County":"Westchester","ID":"A-197883","State":"NY","lat":41.057632,"lng":-73.83699},{"City":"Troutman","County":"Iredell","ID":"A-3449156","State":"NC","lat":35.656663,"lng":-80.861404},{"City":"Gaffney","County":"Cherokee","ID":"A-3454600","State":"SC","lat":35.1102,"lng":-81.59979},{"City":"Crewe","County":"Nottoway","ID":"A-3453592","State":"VA","lat":37.215882,"lng":-78.151078},{"City":"Wyoming","County":"Chisago","ID":"A-3425856","State":"MN","lat":45.335568,"lng":-92.99854},{"City":"Indianapolis","County":"Marion","ID":"A-3446517","State":"IN","lat":39.90923,"lng":-86.04285},{"City":"Burnet","County":"Burnet","ID":"A-267516","State":"TX","lat":30.820786,"lng":-98.23877},{"City":"Lewes","County":"Sussex","ID":"A-3454263","State":"DE","lat":38.74859,"lng":-75.17686},{"City":"Benson","County":"Cochise","ID":"A-3511280","State":"AZ","lat":31.96274,"lng":-110.43902},{"City":"Yuma","County":"Yuma","ID":"A-3511440","State":"AZ","lat":32.68779,"lng":-114.5741},{"City":"Lufkin","County":"Angelina","ID":"A-3426212","State":"TX","lat":31.350696,"lng":-94.764962},{"City":"Evergreen","County":"Clear Creek","ID":"A-3511096","State":"CO","lat":39.74539,"lng":-105.43974},{"City":"Prosperity","County":"Newberry","ID":"A-146553","State":"SC","lat":34.213913,"lng":-81.516525},{"City":"Ontario","County":"Malheur","ID":"A-3527765","State":"OR","lat":43.95211,"lng":-117.00588},{"City":"Iowa Falls","County":"Hardin","ID":"A-161536","State":"IA","lat":42.426537,"lng":-93.143562},{"City":"Bridgeville","County":"Allegheny","ID":"A-230217","State":"PA","lat":40.320343,"lng":-80.144135},{"City":"Lewiston","County":"Winona","ID":"A-3426927","State":"MN","lat":43.93153,"lng":-91.87422},{"City":"Stockbridge","County":"Henry","ID":"A-147735","State":"GA","lat":33.581535,"lng":-84.225731},{"City":"Fort Pierce","County":"St. Lucie","ID":"A-117637","State":"FL","lat":27.448038,"lng":-80.559967},{"City":"Wrens","County":"Jefferson","ID":"A-3448758","State":"GA","lat":33.212998,"lng":-82.385101},{"City":"Hurricane","County":"Washington","ID":"A-3511268","State":"UT","lat":37.36576,"lng":-113.259591},{"City":"Bristol","County":"Liberty","ID":"A-3454320","State":"FL","lat":30.505038,"lng":-84.848197},{"City":"Centralia","County":"Marion","ID":"A-168828","State":"IL","lat":38.512371,"lng":-88.960091},{"City":"Ogden","County":"Weber","ID":"A-3511057","State":"UT","lat":41.297864,"lng":-111.96889},{"City":"Cedar Falls","County":"Black Hawk","ID":"A-161489","State":"IA","lat":42.613846,"lng":-92.509132},{"City":"Roggen","County":"Weld","ID":"A-3427292","State":"CO","lat":40.07315,"lng":-104.319526},{"City":"Green River","County":"Emery","ID":"A-3511612","State":"UT","lat":39.461284,"lng":-110.487694},{"City":"Dandridge","County":"Jefferson","ID":"A-3448516","State":"TN","lat":35.993193,"lng":-83.28883},{"City":"Albany","County":"Dougherty","ID":"A-146397","State":"GA","lat":31.483543,"lng":-84.116692},{"City":"Warsaw","County":"Wyoming","ID":"A-3451050","State":"NY","lat":42.74,"lng":-78.14186},{"City":"Burke","County":"Franklin","ID":"A-3455201","State":"NY","lat":44.926131,"lng":-74.230997},{"City":"Soulsbyville","County":"Tuolumne","ID":"A-3527415","State":"CA","lat":37.995716,"lng":-120.268415},{"City":"Naples","County":"Morris","ID":"A-3426431","State":"TX","lat":33.20964,"lng":-94.67289},{"City":"Fort Meade","County":"Polk","ID":"A-119472","State":"FL","lat":27.64637,"lng":-81.625282},{"City":"Cornell","County":"Chippewa","ID":"A-3427131","State":"WI","lat":45.165153,"lng":-91.141228},{"City":"Chichester","County":"Ulster","ID":"A-198221","State":"NY","lat":42.109081,"lng":-74.282974},{"City":"San Ardo","County":"Monterey","ID":"A-3525145","State":"CA","lat":36.18332,"lng":-120.69984},{"City":"Milledgeville","County":"Baldwin","ID":"A-146483","State":"GA","lat":33.051468,"lng":-83.254951},{"City":"Skippers","County":"Greensville","ID":"A-3452893","State":"VA","lat":36.565486,"lng":-77.568214},{"City":"Boca Raton","County":"Palm Beach","ID":"A-3448964","State":"FL","lat":26.39157,"lng":-80.09684},{"City":"Hillsborough","County":"Orange","ID":"A-3452989","State":"NC","lat":36.0345,"lng":-79.093},{"City":"Manchester","County":"Washtenaw","ID":"A-179197","State":"MI","lat":42.239792,"lng":-84.037003},{"City":"Bloomfield","County":"Hartford","ID":"A-194798","State":"CT","lat":41.86787,"lng":-72.725868},{"City":"Frankenmuth","County":"Saginaw","ID":"A-3452728","State":"MI","lat":43.39614,"lng":-83.73818},{"City":"Downieville","County":"Sierra","ID":"A-8859","State":"CA","lat":39.559582,"lng":-120.823387},{"City":"Anita","County":"Cass","ID":"A-3425956","State":"IA","lat":41.49697,"lng":-94.75356},{"City":"Vineland","County":"Cumberland","ID":"A-231939","State":"NJ","lat":39.439144,"lng":-75.017876},{"City":"Mount Airy","County":"Surry","ID":"A-3452198","State":"NC","lat":36.49108,"lng":-80.74635},{"City":"Saint Helena","County":"Napa","ID":"A-5320","State":"CA","lat":38.524822,"lng":-122.481354},{"City":"Hockessin","County":"New Castle","ID":"A-230751","State":"DE","lat":39.788559,"lng":-75.695778},{"City":"Constableville","County":"Lewis","ID":"A-3455177","State":"NY","lat":43.56135,"lng":-75.42743},{"City":"Battle Creek","County":"Calhoun","ID":"A-180089","State":"MI","lat":42.262074,"lng":-85.198586},{"City":"Willows","County":"Glenn","ID":"A-7188","State":"CA","lat":39.579372,"lng":-122.210747},{"City":"Annandale","County":"Hunterdon","ID":"A-3449029","State":"NJ","lat":40.63938,"lng":-74.88001},{"City":"Bonifay","County":"Holmes","ID":"A-3449818","State":"FL","lat":30.76277,"lng":-85.68979},{"City":"Mason City","County":"Mason","ID":"A-3454231","State":"IL","lat":40.20293,"lng":-89.71576},{"City":"Tehachapi","County":"Kern","ID":"A-3526449","State":"CA","lat":35.09848,"lng":-118.29634},{"City":"Pierceton","County":"Kosciusko","ID":"A-3454068","State":"IN","lat":41.20494,"lng":-85.707111},{"City":"Breezewood","County":"Bedford","ID":"A-3448896","State":"PA","lat":40.01488,"lng":-78.20217},{"City":"Talking Rock","County":"Pickens","ID":"A-3446513","State":"GA","lat":34.547179,"lng":-84.588324},{"City":"Amazonia","County":"Andrew","ID":"A-3426632","State":"MO","lat":39.91889,"lng":-94.90836},{"City":"Mariposa","County":"Mariposa","ID":"A-3528801","State":"CA","lat":37.52434,"lng":-119.92123},{"City":"Tifton","County":"Tift","ID":"A-146451","State":"GA","lat":31.426773,"lng":-83.512741},{"City":"Colfax","County":"Whitman","ID":"A-307976","State":"WA","lat":46.832958,"lng":-117.505646},{"City":"Craigmont","County":"Lewis","ID":"A-3528924","State":"ID","lat":46.235782,"lng":-116.493531},{"City":"Bend","County":"Deschutes","ID":"A-3525812","State":"OR","lat":43.83755,"lng":-121.4222},{"City":"Manassas","County":"Prince William","ID":"A-232812","State":"VA","lat":38.69455,"lng":-77.44207},{"City":"Somerset","County":"Bristol","ID":"A-3452973","State":"MA","lat":41.72138,"lng":-71.18369},{"City":"Villa Ridge","County":"Franklin","ID":"A-3425324","State":"MO","lat":38.48007,"lng":-90.84691},{"City":"Ennis","County":"Ellis","ID":"A-3425934","State":"TX","lat":32.30475,"lng":-96.58428},{"City":"Shippenville","County":"Clarion","ID":"A-3455325","State":"PA","lat":41.19241,"lng":-79.42561},{"City":"Gold Canyon","County":"Pinal","ID":"A-3511153","State":"AZ","lat":33.360099,"lng":-111.470759},{"City":"Jonesville","County":"Lee","ID":"A-3451019","State":"VA","lat":36.68768,"lng":-83.1014},{"City":"Danville","County":"Vermilion","ID":"A-168797","State":"IL","lat":40.113693,"lng":-87.610176},{"City":"Sycamore","County":"Dekalb","ID":"A-168661","State":"IL","lat":41.966019,"lng":-88.719254},{"City":"Pixley","County":"Tulare","ID":"A-3527187","State":"CA","lat":36.00457,"lng":-119.30148},{"City":"Davis","County":"Yolo","ID":"A-6059","State":"CA","lat":38.56369,"lng":-121.636627},{"City":"Prescott","County":"Yavapai","ID":"A-3511107","State":"AZ","lat":34.662188,"lng":-112.437508},{"City":"Blanco","County":"Blanco","ID":"A-3427427","State":"TX","lat":30.20106,"lng":-98.37633},{"City":"Statesboro","County":"Bulloch","ID":"A-147400","State":"GA","lat":32.455952,"lng":-81.788589},{"City":"Richmond","County":"Wayne","ID":"A-3449523","State":"IN","lat":39.8693,"lng":-84.86461},{"City":"Indiana","County":"Indiana","ID":"A-230151","State":"PA","lat":40.607399,"lng":-79.16288},{"City":"Lansing","County":"Clinton","ID":"A-180874","State":"MI","lat":42.806911,"lng":-84.51152},{"City":"Tracy","County":"San Joaquin","ID":"A-3528249","State":"CA","lat":37.60047,"lng":-121.34303},{"City":"Plover","County":"Portage","ID":"A-3449122","State":"WI","lat":44.448342,"lng":-89.599239},{"City":"Emmaus","County":"Lehigh","ID":"A-231027","State":"PA","lat":40.538815,"lng":-75.534393},{"City":"Standish","County":"Arenac","ID":"A-181574","State":"MI","lat":43.983154,"lng":-84.016983},{"City":"Pearl River","County":"St. Tammany","ID":"A-3455414","State":"LA","lat":30.3778,"lng":-89.74049},{"City":"Acton","County":"Los Angeles","ID":"A-54316","State":"CA","lat":34.500553,"lng":-118.228455},{"City":"Lebanon Junction","County":"Hardin","ID":"A-3445373","State":"KY","lat":37.800527,"lng":-85.749945},{"City":"Antioch","County":"Davidson","ID":"A-3450175","State":"TN","lat":36.01337,"lng":-86.62069},{"City":"Albuquerque","County":"Bernalillo","ID":"A-3511333","State":"NM","lat":35.093358,"lng":-106.731013},{"City":"Satsuma","County":"Putnam","ID":"A-117602","State":"FL","lat":29.521692,"lng":-81.670853},{"City":"Baker City","County":"Baker","ID":"A-3526052","State":"OR","lat":44.79964,"lng":-117.81251},{"City":"Derry","County":"Rockingham","ID":"A-3455463","State":"NH","lat":42.855126,"lng":-71.318739},{"City":"Cannon Falls","County":"Goodhue","ID":"A-3425770","State":"MN","lat":44.54335,"lng":-92.89125},{"City":"Oilville","County":"Goochland","ID":"A-3447249","State":"VA","lat":37.71089,"lng":-77.78566},{"City":"Piedmont","County":"Anderson","ID":"A-3454858","State":"SC","lat":34.77195,"lng":-82.46675},{"City":"Lodi","County":"San Joaquin","ID":"A-7959","State":"CA","lat":38.137913,"lng":-121.205948},{"City":"Elgin","County":"Bastrop","ID":"A-265247","State":"TX","lat":30.271097,"lng":-97.472588},{"City":"Alba","County":"Wood","ID":"A-267400","State":"TX","lat":32.840908,"lng":-95.632248},{"City":"Carlin","County":"Elko","ID":"A-3524888","State":"NV","lat":40.72473,"lng":-116.07858},{"City":"Modoc","County":"Edgefield","ID":"A-147467","State":"SC","lat":33.738319,"lng":-82.145218},{"City":"Houston","County":"Fort Bend","ID":"A-264602","State":"TX","lat":29.581148,"lng":-95.454109},{"City":"Clarksville","County":"Montgomery","ID":"A-3450195","State":"TN","lat":36.55987,"lng":-87.25213},{"City":"Bradenton Beach","County":"Manatee","ID":"A-120072","State":"FL","lat":27.468189,"lng":-82.699425},{"City":"Stockholm","County":"Sussex","ID":"A-198322","State":"NJ","lat":41.126717,"lng":-74.503571},{"City":"Peoria","County":"Peoria","ID":"A-168810","State":"IL","lat":40.801727,"lng":-89.631042},{"City":"Folkston","County":"Charlton","ID":"A-3451701","State":"GA","lat":31.0031,"lng":-82.12954},{"City":"Clearwater","County":"Wright","ID":"A-3426928","State":"MN","lat":45.36818,"lng":-93.97875},{"City":"Fitchburg","County":"Worcester","ID":"A-195214","State":"MA","lat":42.549671,"lng":-71.847313},{"City":"Pine Grove","County":"Amador","ID":"A-3527398","State":"CA","lat":38.405541,"lng":-120.645693},{"City":"Paw Paw","County":"Van Buren","ID":"A-3448365","State":"MI","lat":42.2059,"lng":-85.89446},{"City":"Severna Park","County":"Anne Arundel","ID":"A-231418","State":"MD","lat":39.072128,"lng":-76.541046},{"City":"Weiser","County":"Washington","ID":"A-3528279","State":"ID","lat":44.444318,"lng":-116.780761},{"City":"Bassett","County":"Henry","ID":"A-3452816","State":"VA","lat":36.788706,"lng":-79.934516},{"City":"Hudson","County":"Columbia","ID":"A-198243","State":"NY","lat":42.252304,"lng":-73.759071},{"City":"Skokie","County":"Cook","ID":"A-3445640","State":"IL","lat":42.06052,"lng":-87.75565},{"City":"Homestead","County":"Miami-Dade","ID":"A-117970","State":"FL","lat":25.433098,"lng":-80.501472},{"City":"Beckley","County":"Raleigh","ID":"A-3450444","State":"WV","lat":37.75855,"lng":-81.2127},{"City":"Milford","County":"Beaver","ID":"A-3511740","State":"UT","lat":38.420938,"lng":-113.099914},{"City":"Trenton","County":"Mercer","ID":"A-3447414","State":"NJ","lat":40.174447,"lng":-74.635155},{"City":"Bucyrus","County":"Miami","ID":"A-3426766","State":"KS","lat":38.726192,"lng":-94.6762},{"City":"Chillicothe","County":"Ross","ID":"A-221895","State":"OH","lat":39.303177,"lng":-82.916237},{"City":"Calabasas","County":"Los Angeles","ID":"A-56094","State":"CA","lat":34.149837,"lng":-118.663429},{"City":"Wadsworth","County":"Medina","ID":"A-222679","State":"OH","lat":41.081047,"lng":-81.735779},{"City":"Snohomish","County":"Snohomish","ID":"A-307371","State":"WA","lat":47.959064,"lng":-121.95443},{"City":"Milton Freewater","County":"Umatilla","ID":"A-307545","State":"OR","lat":45.962139,"lng":-118.402565},{"City":"Center Moriches","County":"Suffolk","ID":"A-198072","State":"NY","lat":40.804626,"lng":-72.800903},{"City":"Fremont","County":"Alameda","ID":"A-9180","State":"CA","lat":37.49575,"lng":-121.923042},{"City":"The Dalles","County":"Wasco","ID":"A-3525607","State":"OR","lat":45.657955,"lng":-121.214365},{"City":"Ronks","County":"Lancaster","ID":"A-3445813","State":"PA","lat":40.016162,"lng":-76.160932},{"City":"Hagerstown","County":"Washington","ID":"A-231527","State":"MD","lat":39.628078,"lng":-77.774971},{"City":"Hanover","County":"York","ID":"A-230586","State":"PA","lat":39.833759,"lng":-76.946556},{"City":"Perry","County":"Houston","ID":"A-147595","State":"GA","lat":32.490185,"lng":-83.729973},{"City":"Duxbury","County":"Plymouth","ID":"A-197638","State":"MA","lat":42.055542,"lng":-70.725044},{"City":"Wallowa","County":"Wallowa","ID":"A-3526067","State":"OR","lat":45.60481,"lng":-117.629736},{"City":"Deer Park","County":"Spokane","ID":"A-307620","State":"WA","lat":47.954002,"lng":-117.488251},{"City":"Supply","County":"Brunswick","ID":"A-3446732","State":"NC","lat":34.01729,"lng":-78.27326},{"City":"Elberton","County":"Elbert","ID":"A-3454085","State":"GA","lat":34.028655,"lng":-82.793165},{"City":"Marietta","County":"Cobb","ID":"A-146986","State":"GA","lat":33.947559,"lng":-84.590729},{"City":"Wilkes Barre","County":"Luzerne","ID":"A-3450479","State":"PA","lat":41.20202,"lng":-75.79431},{"City":"Raiford","County":"Union","ID":"A-3449019","State":"FL","lat":30.070179,"lng":-82.193324},{"City":"Vinton","County":"Bedford County","ID":"A-3451095","State":"VA","lat":37.270987,"lng":-79.788544},{"City":"Walnut","County":"Los Angeles","ID":"A-3526154","State":"CA","lat":33.99712,"lng":-117.8657},{"City":"Grays River","County":"Wahkiakum","ID":"A-3528626","State":"WA","lat":46.347743,"lng":-123.524352},{"City":"Apple Valley","County":"San Bernardino","ID":"A-3528045","State":"CA","lat":34.64812,"lng":-117.21609},{"City":"Madras","County":"Jefferson","ID":"A-3526582","State":"OR","lat":44.765772,"lng":-121.00313},{"City":"Darwin","County":"Meeker","ID":"A-3425666","State":"MN","lat":45.103238,"lng":-94.42284},{"City":"Rock Falls","County":"Whiteside","ID":"A-3453608","State":"IL","lat":41.752759,"lng":-89.760951},{"City":"Granite","County":"Chaffee","ID":"A-3511042","State":"CO","lat":39.043055,"lng":-106.266127},{"City":"Roebuck","County":"Spartanburg","ID":"A-3452627","State":"SC","lat":34.74393,"lng":-81.95439},{"City":"Herculaneum","County":"Jefferson","ID":"A-3445486","State":"MO","lat":38.255049,"lng":-90.40244},{"City":"Des Moines","County":"Polk","ID":"A-160909","State":"IA","lat":41.535557,"lng":-93.628288},{"City":"Menomonie","County":"Dunn","ID":"A-3427144","State":"WI","lat":44.9049,"lng":-91.86153},{"City":"Willits","County":"Mendocino","ID":"A-9038","State":"CA","lat":39.366554,"lng":-123.316269},{"City":"Cibola","County":"La Paz","ID":"A-3511639","State":"AZ","lat":33.6025,"lng":-114.51433},{"City":"Crystal River","County":"Citrus","ID":"A-119274","State":"FL","lat":29.016613,"lng":-82.569191},{"City":"Ogden","County":"Boone","ID":"A-3427324","State":"IA","lat":42.0346,"lng":-94.12543},{"City":"Plummer","County":"Benewah","ID":"A-3528061","State":"ID","lat":47.246133,"lng":-116.92266},{"City":"Conservation","County":"Broward","ID":"A-119882","State":"FL","lat":26.170738,"lng":-80.855469},{"City":"Chesapeake","County":"Chesapeake","ID":"A-3453656","State":"VA","lat":36.78258,"lng":-76.23732},{"City":"Los Banos","County":"Merced","ID":"A-7126","State":"CA","lat":37.083889,"lng":-121.10199},{"City":"Edwards","County":"Eagle","ID":"A-3511340","State":"CO","lat":39.69917,"lng":-106.67575},{"City":"Merced","County":"Merced","ID":"A-3527422","State":"CA","lat":37.353777,"lng":-120.503548},{"City":"Port Saint Joe","County":"Gulf","ID":"A-3450032","State":"FL","lat":29.894445,"lng":-85.359708},{"City":"Austin","County":"Travis","ID":"A-262835","State":"TX","lat":30.422871,"lng":-97.941818},{"City":"Hemet","County":"Riverside","ID":"A-54826","State":"CA","lat":33.747875,"lng":-116.887054},{"City":"Enumclaw","County":"King","ID":"A-3526035","State":"WA","lat":47.176621,"lng":-122.020367},{"City":"Lake Havasu City","County":"Mohave","ID":"A-3511720","State":"AZ","lat":34.604035,"lng":-114.363732},{"City":"Amboy","County":"San Bernardino","ID":"A-3526834","State":"CA","lat":34.72122,"lng":-115.67249},{"City":"Pulaski","County":"Oswego","ID":"A-3446472","State":"NY","lat":43.56897,"lng":-76.11386},{"City":"Saint Regis","County":"Mineral","ID":"A-3526746","State":"MT","lat":47.4533,"lng":-115.69415},{"City":"Roseboro","County":"Sampson","ID":"A-3453605","State":"NC","lat":34.959908,"lng":-78.457969},{"City":"Sandy","County":"Clackamas","ID":"A-3524179","State":"OR","lat":45.376802,"lng":-122.095541},{"City":"Charlottesville","County":"Charlottesville City","ID":"A-3450976","State":"VA","lat":38.055757,"lng":-78.661755},{"City":"Valley","County":"Douglas","ID":"A-3426140","State":"NE","lat":41.32918,"lng":-96.34691},{"City":"Baraboo","County":"Sauk","ID":"A-3452948","State":"WI","lat":43.53224,"lng":-89.89176},{"City":"Yemassee","County":"Hampton","ID":"A-3453450","State":"SC","lat":32.70416,"lng":-80.87124},{"City":"Florence","County":"Hampshire","ID":"A-197339","State":"MA","lat":42.344078,"lng":-72.676773},{"City":"Belfair","County":"Mason","ID":"A-3529060","State":"WA","lat":47.450973,"lng":-122.827316},{"City":"Wright","County":"Carlton","ID":"A-3425641","State":"MN","lat":46.669037,"lng":-93.008258},{"City":"Van Wert","County":"Van Wert","ID":"A-3454759","State":"OH","lat":40.87784,"lng":-84.62528},{"City":"West Point","County":"Troup","ID":"A-148346","State":"GA","lat":32.947102,"lng":-85.098503},{"City":"La Marque","County":"Galveston","ID":"A-3425358","State":"TX","lat":29.332812,"lng":-94.936831},{"City":"Flagstaff","County":"Coconino","ID":"A-3511396","State":"AZ","lat":35.11786,"lng":-111.09577},{"City":"Montgomery","County":"Orange","ID":"A-195894","State":"NY","lat":41.537712,"lng":-74.23774},{"City":"Ocean Springs","County":"Jackson","ID":"A-3446006","State":"MS","lat":30.44251,"lng":-88.72092},{"City":"Lowell","County":"Lake","ID":"A-3454256","State":"IN","lat":41.243595,"lng":-87.49207},{"City":"Fostoria","County":"Seneca","ID":"A-3452828","State":"OH","lat":41.221377,"lng":-83.462497},{"City":"Albert Lea","County":"Freeborn","ID":"A-3425149","State":"MN","lat":43.6161,"lng":-93.33847},{"City":"Laveen","County":"Pinal","ID":"A-3511110","State":"AZ","lat":33.173242,"lng":-112.005023},{"City":"La Porte","County":"LaPorte","ID":"A-3450928","State":"IN","lat":41.51621,"lng":-86.69672},{"City":"Shawnee","County":"Pottawatomie","ID":"A-3427794","State":"OK","lat":35.456534,"lng":-96.906487},{"City":"Scarborough","County":"Cumberland","ID":"A-3452150","State":"ME","lat":43.62905,"lng":-70.34752},{"City":"Zephyrhills","County":"Pasco","ID":"A-119455","State":"FL","lat":28.207949,"lng":-82.246002},{"City":"Farmer City","County":"De Witt","ID":"A-168201","State":"IL","lat":40.251324,"lng":-88.625046},{"City":"Foresthill","County":"Placer","ID":"A-7690","State":"CA","lat":39.099892,"lng":-120.727058},{"City":"Aurora","County":"Kane","ID":"A-168339","State":"IL","lat":41.798424,"lng":-88.28186},{"City":"Saint Cloud","County":"Osceola","ID":"A-118770","State":"FL","lat":28.0354,"lng":-81.043465},{"City":"Porter","County":"Montgomery","ID":"A-266258","State":"TX","lat":30.137754,"lng":-95.290138},{"City":"Post Falls","County":"Kootenai","ID":"A-3524804","State":"ID","lat":47.71252,"lng":-116.92405},{"City":"Peshastin","County":"Chelan","ID":"A-3527573","State":"WA","lat":47.55897,"lng":-120.59269},{"City":"Asheville","County":"Buncombe","ID":"A-3448150","State":"NC","lat":35.596623,"lng":-82.571271},{"City":"San Juan Capistrano","County":"Orange","ID":"A-3525705","State":"CA","lat":33.48592,"lng":-117.66602},{"City":"Naubinway","County":"Mackinac","ID":"A-3450898","State":"MI","lat":46.10071,"lng":-85.53822},{"City":"Oakley","County":"Saginaw","ID":"A-3452729","State":"MI","lat":43.1868,"lng":-84.2278},{"City":"Girard","County":"Erie","ID":"A-3448008","State":"PA","lat":41.96161,"lng":-80.3434},{"City":"Culpeper","County":"Culpeper","ID":"A-3450045","State":"VA","lat":38.49219,"lng":-77.93539},{"City":"Surprise","County":"Maricopa","ID":"A-3511536","State":"AZ","lat":33.68462,"lng":-112.409},{"City":"Far Rockaway","County":"Queens","ID":"A-196783","State":"NY","lat":40.595085,"lng":-73.759766},{"City":"Fairfield","County":"Rockbridge","ID":"A-3446354","State":"VA","lat":37.88411,"lng":-79.28823},{"City":"Parksley","County":"Accomack","ID":"A-3447067","State":"VA","lat":37.759879,"lng":-75.61762},{"City":"Thousand Palms","County":"Riverside","ID":"A-3527191","State":"CA","lat":33.81757,"lng":-116.40549},{"City":"Naples","County":"Collier","ID":"A-118649","State":"FL","lat":26.257042,"lng":-81.805107},{"City":"Bullhead City","County":"Mohave","ID":"A-3511665","State":"AZ","lat":35.11522,"lng":-114.59809},{"City":"Denton","County":"Denton","ID":"A-3427474","State":"TX","lat":33.233268,"lng":-97.175497},{"City":"Osceola","County":"Clarke","ID":"A-161111","State":"IA","lat":41.069717,"lng":-93.781319},{"City":"Idaho Falls","County":"Bonneville","ID":"A-3511713","State":"ID","lat":43.542692,"lng":-112.069844},{"City":"Osceola","County":"St. Joseph","ID":"A-181168","State":"IN","lat":41.724503,"lng":-86.095947},{"City":"Pickens","County":"Yazoo","ID":"A-3455492","State":"MS","lat":32.876657,"lng":-90.02496},{"City":"Lusby","County":"Calvert","ID":"A-3450440","State":"MD","lat":38.373896,"lng":-76.444619},{"City":"Georgetown","County":"Brown","ID":"A-3448284","State":"OH","lat":38.903583,"lng":-83.763773},{"City":"Troy","County":"Madison","ID":"A-3448021","State":"IL","lat":38.752,"lng":-89.90657},{"City":"Duluth","County":"St. Louis","ID":"A-3425671","State":"MN","lat":46.80366,"lng":-92.06802},{"City":"Cornelia","County":"Habersham","ID":"A-147890","State":"GA","lat":34.497566,"lng":-83.574928},{"City":"Palisade","County":"Aitkin","ID":"A-3425322","State":"MN","lat":46.825695,"lng":-93.61405},{"City":"Dallas","County":"Dallas","ID":"A-3424825","State":"TX","lat":32.72432,"lng":-96.76198},{"City":"Kilkenny","County":"Le Sueur","ID":"A-3427516","State":"MN","lat":44.358785,"lng":-93.606271},{"City":"Gunnison","County":"Gunnison","ID":"A-3511439","State":"CO","lat":38.45154,"lng":-107.32621},{"City":"Uncasville","County":"New London","ID":"A-3450431","State":"CT","lat":41.49145,"lng":-72.11455},{"City":"Sauk Centre","County":"Stearns","ID":"A-3426601","State":"MN","lat":45.72252,"lng":-94.95916},{"City":"Umatilla","County":"Umatilla","ID":"A-3527367","State":"OR","lat":45.91821,"lng":-119.32097},{"City":"Gardnerville","County":"Douglas","ID":"A-3528745","State":"NV","lat":38.909531,"lng":-119.779172},{"City":"Wayne","County":"Mcclain","ID":"A-3425833","State":"OK","lat":34.915923,"lng":-97.31177},{"City":"Louisburg","County":"Franklin","ID":"A-3454521","State":"NC","lat":36.08327,"lng":-78.31417},{"City":"Pilot Rock","County":"Umatilla","ID":"A-3527560","State":"OR","lat":45.13791,"lng":-118.95729},{"City":"New Braunfels","County":"Comal","ID":"A-265839","State":"TX","lat":29.625513,"lng":-98.239738},{"City":"Muskegon","County":"Muskegon","ID":"A-180684","State":"MI","lat":43.168762,"lng":-86.202782},{"City":"Hammett","County":"Elmore","ID":"A-3526792","State":"ID","lat":42.95878,"lng":-115.45605},{"City":"Richland","County":"Pulaski","ID":"A-3426919","State":"MO","lat":37.77924,"lng":-92.31402},{"City":"Royalton","County":"Morrison","ID":"A-3424832","State":"MN","lat":45.855402,"lng":-94.09284},{"City":"Molena","County":"Pike","ID":"A-146428","State":"GA","lat":32.992901,"lng":-84.508339},{"City":"Covington","County":"St. Tammany","ID":"A-3448375","State":"LA","lat":30.45674,"lng":-90.17402},{"City":"Augusta","County":"Kennebec","ID":"A-3454093","State":"ME","lat":44.31503,"lng":-69.81081},{"City":"Ripley","County":"Jackson","ID":"A-3448073","State":"WV","lat":38.75956,"lng":-81.69238},{"City":"Salem","County":"Marion","ID":"A-3526577","State":"OR","lat":45.05241,"lng":-122.97143},{"City":"Holbrook","County":"Navajo","ID":"A-3511437","State":"AZ","lat":34.90674,"lng":-110.20592},{"City":"Yacolt","County":"Clark","ID":"A-3526300","State":"WA","lat":45.893706,"lng":-122.495866},{"City":"Murrysville","County":"Westmoreland","ID":"A-3451533","State":"PA","lat":40.48735,"lng":-79.69705},{"City":"Saint Paul","County":"Ramsey","ID":"A-3426261","State":"MN","lat":44.92239,"lng":-93.14479},{"City":"Walworth","County":"Walworth","ID":"A-168617","State":"WI","lat":42.528069,"lng":-88.599586},{"City":"Blairsburg","County":"Hamilton","ID":"A-3426887","State":"IA","lat":42.470726,"lng":-93.639041},{"City":"Chehalis","County":"Lewis","ID":"A-307244","State":"WA","lat":46.547367,"lng":-122.876762},{"City":"Fairfield","County":"Solano","ID":"A-5970","State":"CA","lat":38.21669,"lng":-122.138069},{"City":"Verona","County":"Oneida","ID":"A-3446850","State":"NY","lat":43.146724,"lng":-75.562764},{"City":"Powell","County":"Delaware","ID":"A-222221","State":"OH","lat":40.158508,"lng":-83.091484},{"City":"Newton","County":"Jasper","ID":"A-3425984","State":"IA","lat":41.68299,"lng":-92.8971},{"City":"Wampum","County":"Beaver","ID":"A-233229","State":"PA","lat":40.814087,"lng":-80.324867},{"City":"Santa Cruz","County":"Santa Cruz","ID":"A-3525028","State":"CA","lat":36.99249,"lng":-122.01976},{"City":"Chester","County":"Howard","ID":"A-3427080","State":"IA","lat":43.478701,"lng":-92.341524},{"City":"Elk River","County":"Sherburne","ID":"A-3426142","State":"MN","lat":45.295686,"lng":-93.553006},{"City":"Deerfield","County":"Dane","ID":"A-3450189","State":"WI","lat":43.10889,"lng":-89.08626},{"City":"Alachua","County":"Alachua","ID":"A-3455144","State":"FL","lat":29.778883,"lng":-82.510849},{"City":"Yuba City","County":"Sutter","ID":"A-7250","State":"CA","lat":39.076309,"lng":-121.63488},{"City":"Amsterdam","County":"Montgomery","ID":"A-3450772","State":"NY","lat":42.92395,"lng":-74.20159},{"City":"Lebanon","County":"Boone","ID":"A-3453983","State":"IN","lat":40.028619,"lng":-86.45514},{"City":"Greensboro","County":"Guilford","ID":"A-3447887","State":"NC","lat":36.0772,"lng":-79.94925},{"City":"Wakefield","County":"Sussex","ID":"A-3447374","State":"VA","lat":36.966151,"lng":-76.979015},{"City":"Black Canyon City","County":"Yavapai","ID":"A-3511186","State":"AZ","lat":34.233273,"lng":-112.11134},{"City":"Lawrence","County":"Douglas","ID":"A-3427403","State":"KS","lat":38.99369,"lng":-95.213115},{"City":"New Orleans","County":"Orleans","ID":"A-3446187","State":"LA","lat":30.02648,"lng":-90.00938},{"City":"Barnesville","County":"Belmont","ID":"A-3448370","State":"OH","lat":40.05802,"lng":-81.15235},{"City":"Tappahannock","County":"Essex","ID":"A-3448812","State":"VA","lat":37.89714,"lng":-76.8715},{"City":"Port Huron","County":"Saint Clair","ID":"A-3454732","State":"MI","lat":43.00402,"lng":-82.44099},{"City":"Lakewood","County":"Pierce","ID":"A-3524418","State":"WA","lat":47.13438,"lng":-122.53018},{"City":"Milton","County":"Strafford","ID":"A-3451570","State":"NH","lat":43.431191,"lng":-71.009318},{"City":"Exchange","County":"Braxton","ID":"A-3454876","State":"WV","lat":38.679489,"lng":-80.710623},{"City":"Greenup","County":"Cumberland","ID":"A-167974","State":"IL","lat":39.255646,"lng":-88.153656},{"City":"Richfield","County":"Washington","ID":"A-3451012","State":"WI","lat":43.27385,"lng":-88.18643},{"City":"Saint Matthews","County":"Calhoun","ID":"A-3454735","State":"SC","lat":33.63157,"lng":-80.8742},{"City":"Pine Bluffs","County":"Laramie","ID":"A-3426331","State":"WY","lat":41.17527,"lng":-104.06937},{"City":"Norwalk","County":"Fairfield","ID":"A-196429","State":"CT","lat":41.154465,"lng":-73.427498},{"City":"Houtzdale","County":"Clearfield","ID":"A-3455452","State":"PA","lat":40.830187,"lng":-78.377066},{"City":"Congress","County":"Yavapai","ID":"A-3511364","State":"AZ","lat":34.42461,"lng":-113.24143},{"City":"Bakersfield","County":"Kern","ID":"A-3527885","State":"CA","lat":35.323825,"lng":-118.9143},{"City":"Quinton","County":"New Kent","ID":"A-3452889","State":"VA","lat":37.507951,"lng":-77.105315},{"City":"Sparta","County":"Monroe","ID":"A-3425848","State":"WI","lat":43.964616,"lng":-90.785932},{"City":"Crawfordsville","County":"Montgomery","ID":"A-3453575","State":"IN","lat":39.981398,"lng":-86.9031},{"City":"Rockwood","County":"Cumberland","ID":"A-3449676","State":"TN","lat":35.89469,"lng":-84.72922},{"City":"Rough and Ready","County":"Nevada","ID":"A-6802","State":"CA","lat":39.220261,"lng":-121.1511},{"City":"Clare","County":"Clare","ID":"A-3453954","State":"MI","lat":43.84081,"lng":-84.76325},{"City":"Portland","County":"Multnomah","ID":"A-3525643","State":"OR","lat":45.668619,"lng":-122.868681},{"City":"Fort Lauderdale","County":"Broward","ID":"A-117474","State":"FL","lat":26.144392,"lng":-80.441986},{"City":"Roscoe","County":"Delaware","ID":"A-198257","State":"NY","lat":41.959114,"lng":-74.990738},{"City":"Zion","County":"Lake","ID":"A-168182","State":"IL","lat":42.464439,"lng":-87.85453},{"City":"Center Point","County":"Benton","ID":"A-3427511","State":"IA","lat":42.232,"lng":-91.87286},{"City":"Perryville","County":"Cecil","ID":"A-229368","State":"MD","lat":39.593117,"lng":-76.066345},{"City":"Dublin","County":"Laurens","ID":"A-146447","State":"GA","lat":32.543247,"lng":-82.902641},{"City":"Salina","County":"Sevier","ID":"A-3511417","State":"UT","lat":38.87592,"lng":-111.96007},{"City":"Luverne","County":"Rock","ID":"A-3427652","State":"MN","lat":43.63922,"lng":-96.20788},{"City":"Charlotte","County":"Mecklenburg","ID":"A-3450981","State":"NC","lat":35.231309,"lng":-80.605471},{"City":"Villa Rica","County":"Carroll","ID":"A-146534","State":"GA","lat":33.72216,"lng":-84.939728},{"City":"Twin Peaks","County":"San Bernardino","ID":"A-59381","State":"CA","lat":34.239086,"lng":-117.224487},{"City":"Grand Rapids","County":"Kent","ID":"A-179412","State":"MI","lat":42.865833,"lng":-85.664085},{"City":"Fernley","County":"Lyon","ID":"A-3526508","State":"NV","lat":39.571513,"lng":-119.242522},{"City":"Washington","County":"Daviess","ID":"A-3451107","State":"IN","lat":38.562092,"lng":-87.20205},{"City":"Clarkston","County":"Oakland","ID":"A-180311","State":"MI","lat":42.767117,"lng":-83.378273},{"City":"Saint James City","County":"Lee","ID":"A-116528","State":"FL","lat":26.568327,"lng":-82.101692},{"City":"South Haven","County":"Van Buren","ID":"A-180094","State":"MI","lat":42.365753,"lng":-86.268402},{"City":"Cape May Court House","County":"Cape May","ID":"A-230606","State":"NJ","lat":39.046383,"lng":-74.901123},{"City":"Meadows of Dan","County":"Patrick","ID":"A-3452871","State":"VA","lat":36.716824,"lng":-80.333523},{"City":"West Yellowstone","County":"Gallatin","ID":"A-3511459","State":"MT","lat":44.846728,"lng":-111.068954},{"City":"Myakka City","County":"Manatee","ID":"A-117083","State":"FL","lat":27.314489,"lng":-82.108215},{"City":"Rosenberg","County":"Fort Bend","ID":"A-264442","State":"TX","lat":29.5348,"lng":-95.856148},{"City":"Anderson","County":"Anderson","ID":"A-147332","State":"SC","lat":34.443752,"lng":-82.719398},{"City":"Corning","County":"Steuben","ID":"A-3447711","State":"NY","lat":42.15857,"lng":-77.07615},{"City":"Dolphin","County":"Brunswick","ID":"A-3450076","State":"VA","lat":36.89167,"lng":-77.80481},{"City":"Batesburg","County":"Lexington","ID":"A-147093","State":"SC","lat":33.816509,"lng":-81.452187},{"City":"Lima","County":"Auglaize","ID":"A-3451489","State":"OH","lat":40.65526,"lng":-84.13122},{"City":"Covington","County":"Newton","ID":"A-3446298","State":"GA","lat":33.452525,"lng":-83.84479},{"City":"Cle Elum","County":"Kittitas","ID":"A-3527538","State":"WA","lat":47.29907,"lng":-121.2916},{"City":"Geyserville","County":"Sonoma","ID":"A-7709","State":"CA","lat":38.716362,"lng":-122.921684},{"City":"Delmar","County":"Clinton","ID":"A-3425525","State":"IA","lat":41.912336,"lng":-90.596113},{"City":"Joelton","County":"Davidson","ID":"A-3449822","State":"TN","lat":36.34009,"lng":-86.91736},{"City":"Lincoln","County":"Logan","ID":"A-3449355","State":"IL","lat":40.18513,"lng":-89.316102},{"City":"Cuba","County":"Crawford","ID":"A-3426272","State":"MO","lat":38.04377,"lng":-91.49175},{"City":"Carlisle","County":"Sullivan","ID":"A-3451628","State":"IN","lat":38.937219,"lng":-87.418912},{"City":"Winchester","County":"Frederick","ID":"A-230831","State":"VA","lat":39.247807,"lng":-78.205002},{"City":"Chowchilla","County":"Madera","ID":"A-3526010","State":"CA","lat":37.08419,"lng":-120.20928},{"City":"Eloy","County":"Pinal","ID":"A-3511587","State":"AZ","lat":32.60779,"lng":-111.35213},{"City":"Smithville","County":"Bastrop","ID":"A-267492","State":"TX","lat":30.027546,"lng":-97.157196},{"City":"Foristell","County":"St. Charles","ID":"A-3425407","State":"MO","lat":38.873975,"lng":-90.902854},{"City":"Bethesda","County":"Montgomery","ID":"A-229771","State":"MD","lat":38.962948,"lng":-77.135796},{"City":"Auxvasse","County":"Callaway","ID":"A-3426441","State":"MO","lat":38.97181,"lng":-91.897502},{"City":"Mancelona","County":"Antrim","ID":"A-181339","State":"MI","lat":44.873264,"lng":-85.086021},{"City":"York","County":"York","ID":"A-232729","State":"PA","lat":39.9897,"lng":-76.556816},{"City":"Grand Junction","County":"Mesa","ID":"A-3511670","State":"CO","lat":39.110852,"lng":-108.539334},{"City":"Newark","County":"Licking","ID":"A-222414","State":"OH","lat":40.091763,"lng":-82.426941},{"City":"Saint Augustine","County":"St. Johns","ID":"A-3454387","State":"FL","lat":29.744,"lng":-81.34482},{"City":"Government Camp","County":"Clackamas","ID":"A-3527595","State":"OR","lat":45.28177,"lng":-121.71377},{"City":"Bowling Green","County":"Warren","ID":"A-3450678","State":"KY","lat":36.938269,"lng":-86.416111},{"City":"Williamsburg","County":"Iowa","ID":"A-3425923","State":"IA","lat":41.68721,"lng":-92.002605},{"City":"Holt","County":"Okaloosa","ID":"A-3445719","State":"FL","lat":30.7006,"lng":-86.74664},{"City":"Flagstaff","County":"Coconino","ID":"A-3511387","State":"AZ","lat":35.221571,"lng":-111.793429},{"City":"Swedesboro","County":"Gloucester","ID":"A-3454874","State":"NJ","lat":39.75256,"lng":-75.27821},{"City":"Salinas","County":"Monterey","ID":"A-3528297","State":"CA","lat":36.61269,"lng":-121.56712},{"City":"Cincinnati","County":"Hamilton","ID":"A-3446783","State":"OH","lat":39.29198,"lng":-84.441},{"City":"Casco","County":"Cumberland","ID":"A-3451775","State":"ME","lat":43.957079,"lng":-70.561316},{"City":"Merritt Island","County":"Brevard","ID":"A-119856","State":"FL","lat":28.478197,"lng":-80.691887},{"City":"Orlando","County":"Orange","ID":"A-3446437","State":"FL","lat":28.625107,"lng":-81.476191},{"City":"Plainwell","County":"Allegan","ID":"A-181327","State":"MI","lat":42.464931,"lng":-85.602646},{"City":"Alpine","County":"San Diego","ID":"A-59728","State":"CA","lat":32.83596,"lng":-116.773041},{"City":"Templeton","County":"San Luis Obispo","ID":"A-3524715","State":"CA","lat":35.54064,"lng":-120.71314},{"City":"New Hill","County":"Wake","ID":"A-3455163","State":"NC","lat":35.656148,"lng":-78.955211},{"City":"Whitehall","County":"Washington","ID":"A-3455026","State":"NY","lat":43.476846,"lng":-73.43131},{"City":"Central City","County":"Somerset","ID":"A-3450051","State":"PA","lat":40.038273,"lng":-78.774291},{"City":"West Augusta","County":"Augusta","ID":"A-3451604","State":"VA","lat":38.273384,"lng":-79.301202},{"City":"Okeechobee","County":"Osceola","ID":"A-3452958","State":"FL","lat":27.678194,"lng":-80.888779},{"City":"Spring Hill","County":"Hernando","ID":"A-119156","State":"FL","lat":28.522987,"lng":-82.560501},{"City":"Lakeland","County":"Polk","ID":"A-117392","State":"FL","lat":27.974739,"lng":-81.936165},{"City":"Fayette City","County":"Fayette","ID":"A-3450084","State":"PA","lat":40.08363,"lng":-79.82837},{"City":"Monroe","County":"Benton","ID":"A-3528364","State":"OR","lat":44.31319,"lng":-123.29635},{"City":"Madisonville","County":"Madison","ID":"A-263575","State":"TX","lat":31.092415,"lng":-95.960892},{"City":"Moore Haven","County":"Glades","ID":"A-3448196","State":"FL","lat":26.83394,"lng":-81.122235},{"City":"Willards","County":"Wicomico","ID":"A-3451302","State":"MD","lat":38.38682,"lng":-75.3541},{"City":"Southampton","County":"Suffolk","ID":"A-197480","State":"NY","lat":40.893208,"lng":-72.424484},{"City":"Collins","County":"Covington","ID":"A-3447268","State":"MS","lat":31.659688,"lng":-89.521949},{"City":"Uxbridge","County":"Worcester","ID":"A-194839","State":"MA","lat":42.06691,"lng":-71.666397},{"City":"Milan","County":"Washtenaw","ID":"A-179838","State":"MI","lat":42.10075,"lng":-83.676712},{"City":"Salome","County":"La Paz","ID":"A-3511129","State":"AZ","lat":33.66328,"lng":-114.02144},{"City":"Ashland","County":"Grafton","ID":"A-3454113","State":"NH","lat":43.729938,"lng":-71.657632},{"City":"Belleview","County":"Marion","ID":"A-3451986","State":"FL","lat":29.02965,"lng":-82.04499},{"City":"Gallagher","County":"Kanawha","ID":"A-3454011","State":"WV","lat":38.125684,"lng":-81.388125},{"City":"Kearney","County":"Clay","ID":"A-3426806","State":"MO","lat":39.369573,"lng":-94.371243},{"City":"Dublin","County":"Pulaski","ID":"A-3447042","State":"VA","lat":37.08254,"lng":-80.65307},{"City":"Holts Summit","County":"Callaway","ID":"A-3426609","State":"MO","lat":38.60887,"lng":-92.150803},{"City":"North Bend","County":"King","ID":"A-307601","State":"WA","lat":47.475609,"lng":-121.783936},{"City":"Millerton","County":"Dutchess","ID":"A-194965","State":"NY","lat":41.954811,"lng":-73.514359},{"City":"Los Angeles","County":"Los Angeles","ID":"A-56035","State":"CA","lat":34.120224,"lng":-118.228775},{"City":"Shelbyville","County":"Shelby","ID":"A-3452954","State":"IN","lat":39.549264,"lng":-85.771447},{"City":"Goleta","County":"Santa Barbara","ID":"A-56579","State":"CA","lat":34.509148,"lng":-120.225845},{"City":"Chicago","County":"Cook","ID":"A-3454482","State":"IL","lat":41.733312,"lng":-87.562661},{"City":"Cutler","County":"Tulare","ID":"A-3527830","State":"CA","lat":36.522921,"lng":-119.286768},{"City":"East Troy","County":"Racine","ID":"A-3450701","State":"WI","lat":42.774255,"lng":-88.303438},{"City":"Deltaville","County":"Middlesex","ID":"A-3446421","State":"VA","lat":37.554144,"lng":-76.340926},{"City":"Leary","County":"Baker","ID":"A-3453914","State":"GA","lat":31.385168,"lng":-84.481621},{"City":"Bloomington","County":"Monroe","ID":"A-3454030","State":"IN","lat":39.209804,"lng":-86.554008},{"City":"Mount Carmel","County":"McCormick","ID":"A-148037","State":"SC","lat":34.020145,"lng":-82.403893},{"City":"Johnson City","County":"Broome","ID":"A-3453811","State":"NY","lat":42.11967,"lng":-75.95008},{"City":"Ottumwa","County":"Wapello","ID":"A-161062","State":"IA","lat":41.015133,"lng":-92.376663},{"City":"Victor","County":"Ontario","ID":"A-3447393","State":"NY","lat":43.00871,"lng":-77.43868},{"City":"Orland","County":"Steuben","ID":"A-3448069","State":"IN","lat":41.756084,"lng":-85.181491},{"City":"Fort Plain","County":"Montgomery","ID":"A-3451398","State":"NY","lat":42.990887,"lng":-74.683715},{"City":"Park City","County":"Summit","ID":"A-3511403","State":"UT","lat":40.75089,"lng":-111.6098},{"City":"Seymour","County":"Sevier","ID":"A-3445532","State":"TN","lat":35.870277,"lng":-83.758675},{"City":"Lebanon","County":"Lebanon","ID":"A-231870","State":"PA","lat":40.346291,"lng":-76.421593},{"City":"Temecula","County":"Riverside","ID":"A-53535","State":"CA","lat":33.47073,"lng":-117.137352},{"City":"Summerville","County":"Chattooga","ID":"A-147873","State":"GA","lat":34.440475,"lng":-85.248009},{"City":"Beggs","County":"Okmulgee","ID":"A-3427767","State":"OK","lat":35.826126,"lng":-96.01521},{"City":"Lenoir City","County":"Loudon","ID":"A-3450030","State":"TN","lat":35.837416,"lng":-84.27292},{"City":"Concordia","County":"Lafayette","ID":"A-3426178","State":"MO","lat":38.99159,"lng":-93.56324},{"City":"Averill Park","County":"Rensselaer","ID":"A-197882","State":"NY","lat":42.600567,"lng":-73.517075},{"City":"Old Fort","County":"McDowell","ID":"A-3453229","State":"NC","lat":35.62336,"lng":-82.19896},{"City":"Corinth","County":"Saratoga","ID":"A-3446740","State":"NY","lat":43.2304,"lng":-73.848605},{"City":"Langley","County":"Island","ID":"A-3525129","State":"WA","lat":48.006603,"lng":-122.485721},{"City":"Tumacacori","County":"Santa Cruz","ID":"A-3511588","State":"AZ","lat":31.72254,"lng":-111.05988},{"City":"Owings Mills","County":"Baltimore County","ID":"A-3448383","State":"MD","lat":39.4178,"lng":-76.79796},{"City":"Fairborn","County":"Greene","ID":"A-3449130","State":"OH","lat":39.81067,"lng":-84.00074},{"City":"Salisbury","County":"Rowan","ID":"A-3454676","State":"NC","lat":35.63116,"lng":-80.49382},{"City":"Verona","County":"Dane","ID":"A-3453533","State":"WI","lat":42.9731,"lng":-89.5203},{"City":"Raleigh","County":"Wake","ID":"A-3446125","State":"NC","lat":35.978295,"lng":-78.686651},{"City":"Exeter","County":"Rockingham","ID":"A-3448940","State":"NH","lat":43.00356,"lng":-70.98218},{"City":"Voorhees","County":"Camden","ID":"A-232879","State":"NJ","lat":39.848038,"lng":-74.923035},{"City":"Saint Petersburg","County":"Pinellas","ID":"A-119375","State":"FL","lat":27.838005,"lng":-82.638618},{"City":"Braidwood","County":"Will","ID":"A-168302","State":"IL","lat":41.277802,"lng":-88.239601},{"City":"Bourbonnais","County":"Kankakee","ID":"A-168481","State":"IL","lat":41.168598,"lng":-87.851341},{"City":"McCleary","County":"Grays Harbor","ID":"A-308123","State":"WA","lat":47.054188,"lng":-123.286484},{"City":"Mosheim","County":"Greene","ID":"A-3448156","State":"TN","lat":36.188489,"lng":-82.979468},{"City":"Cherry Valley","County":"Winnebago","ID":"A-168213","State":"IL","lat":42.248222,"lng":-88.961563},{"City":"Punta Gorda","County":"Charlotte","ID":"A-119970","State":"FL","lat":26.961212,"lng":-81.985573},{"City":"Bellingham","County":"Whatcom","ID":"A-3526107","State":"WA","lat":48.7313,"lng":-122.46953},{"City":"Reno","County":"Washoe","ID":"A-3524877","State":"NV","lat":39.53662,"lng":-119.80668},{"City":"Carlisle","County":"Cumberland","ID":"A-230067","State":"PA","lat":40.227966,"lng":-77.155556},{"City":"Silver Plume","County":"Clear Creek","ID":"A-3511381","State":"CO","lat":39.6884,"lng":-105.88272},{"City":"Maricopa","County":"Pinal","ID":"A-3511632","State":"AZ","lat":32.834624,"lng":-112.138488},{"City":"Pollock Pines","County":"El Dorado","ID":"A-7507","State":"CA","lat":38.761196,"lng":-120.570251},{"City":"Grove City","County":"Mercer","ID":"A-3446168","State":"PA","lat":41.20104,"lng":-80.06776},{"City":"Oakland","County":"Alameda","ID":"A-3524601","State":"CA","lat":37.77259,"lng":-122.156957},{"City":"Carpinteria","County":"Santa Barbara","ID":"A-54169","State":"CA","lat":34.385181,"lng":-119.488548},{"City":"Detroit","County":"Wayne","ID":"A-180394","State":"MI","lat":42.417213,"lng":-82.937149},{"City":"Franklin","County":"Heard","ID":"A-3451649","State":"GA","lat":33.312555,"lng":-85.145272},{"City":"Royersford","County":"Montgomery","ID":"A-229345","State":"PA","lat":40.170406,"lng":-75.526604},{"City":"Groveland","County":"Lake","ID":"A-120493","State":"FL","lat":28.554941,"lng":-81.853058},{"City":"Columbiaville","County":"Lapeer","ID":"A-181268","State":"MI","lat":43.165112,"lng":-83.459885},{"City":"Westfield","County":"Chautauqua","ID":"A-3448074","State":"NY","lat":42.34061,"lng":-79.58071},{"City":"Sterling","County":"Windham","ID":"A-3454643","State":"CT","lat":41.697705,"lng":-71.79256},{"City":"McAdoo","County":"Schuylkill","ID":"A-232814","State":"PA","lat":40.881504,"lng":-76.017906},{"City":"Paicines","County":"San Benito","ID":"A-8672","State":"CA","lat":36.60677,"lng":-120.876587},{"City":"Braselton","County":"Jackson","ID":"A-146988","State":"GA","lat":34.117374,"lng":-83.762245},{"City":"Hephzibah","County":"Richmond","ID":"A-148262","State":"GA","lat":33.387344,"lng":-82.066154},{"City":"Orange City","County":"Volusia","ID":"A-3454345","State":"FL","lat":28.91885,"lng":-81.26942},{"City":"Chinook","County":"Pacific","ID":"A-3525090","State":"WA","lat":46.241052,"lng":-123.876561},{"City":"Portland","County":"Ionia","ID":"A-179029","State":"MI","lat":42.859703,"lng":-84.884491},{"City":"Eau Claire","County":"Eau Claire","ID":"A-3426564","State":"WI","lat":44.83152,"lng":-91.45307},{"City":"Ellensburg","County":"Kittitas","ID":"A-3527423","State":"WA","lat":47.0064,"lng":-120.59157},{"City":"Fredericksburg","County":"Stafford","ID":"A-3455221","State":"VA","lat":38.32696,"lng":-77.50178},{"City":"Latimer","County":"Franklin","ID":"A-161542","State":"IA","lat":42.745525,"lng":-93.397049},{"City":"Jacksonville","County":"Duval","ID":"A-3450795","State":"FL","lat":30.48517,"lng":-81.64305},{"City":"Lexington","County":"Oglethorpe","ID":"A-3454808","State":"GA","lat":33.87597,"lng":-83.11654},{"City":"West Long Branch","County":"Monmouth","ID":"A-3451255","State":"NJ","lat":40.295653,"lng":-74.028829},{"City":"Elgin","County":"Santa Cruz","ID":"A-3511100","State":"AZ","lat":31.67928,"lng":-110.65576},{"City":"Newton","County":"Sussex","ID":"A-3453091","State":"NJ","lat":40.995543,"lng":-74.86131},{"City":"Richmond","County":"Henrico","ID":"A-3445445","State":"VA","lat":37.6533,"lng":-77.43072},{"City":"La Fayette","County":"Onondaga","ID":"A-3450853","State":"NY","lat":42.89019,"lng":-76.10935},{"City":"North Hudson","County":"Essex","ID":"A-3454448","State":"NY","lat":44.014525,"lng":-73.705649},{"City":"Tooele","County":"Tooele","ID":"A-3511152","State":"UT","lat":40.539877,"lng":-112.298389},{"City":"Ashburn","County":"Loudoun","ID":"A-232452","State":"VA","lat":39.046951,"lng":-77.479897},{"City":"Ellabell","County":"Bulloch","ID":"A-3445749","State":"GA","lat":32.216879,"lng":-81.52736},{"City":"Mount Sterling","County":"Madison","ID":"A-221916","State":"OH","lat":39.758095,"lng":-83.303368},{"City":"Hawthorne","County":"Alachua","ID":"A-3454232","State":"FL","lat":29.71435,"lng":-82.14669},{"City":"Fowler","County":"Fresno","ID":"A-3527263","State":"CA","lat":36.63025,"lng":-119.68856},{"City":"Coeur D Alene","County":"Kootenai","ID":"A-3528340","State":"ID","lat":47.610588,"lng":-116.516077},{"City":"Quincy","County":"Norfolk","ID":"A-195992","State":"MA","lat":42.281521,"lng":-71.018814},{"City":"Venus","County":"Johnson","ID":"A-267491","State":"TX","lat":32.44442,"lng":-97.089859},{"City":"Rush City","County":"Chisago","ID":"A-3427813","State":"MN","lat":45.68754,"lng":-92.99037},{"City":"Clatskanie","County":"Columbia","ID":"A-307707","State":"OR","lat":46.119858,"lng":-123.23101},{"City":"Omaha","County":"Douglas","ID":"A-160988","State":"NE","lat":41.343349,"lng":-95.962334},{"City":"Sedona","County":"Coconino","ID":"A-3511658","State":"AZ","lat":34.904788,"lng":-111.641809},{"City":"Clarksville","County":"Mecklenburg","ID":"A-3447886","State":"VA","lat":36.647006,"lng":-78.501991},{"City":"Thurmont","County":"Frederick","ID":"A-3452302","State":"MD","lat":39.62074,"lng":-77.424859},